City,Country,Date,Latitude,Longitude,Humidity,Temperature,Temp Max,Cloudiness,Wind Speed
langsa,ID,1624087832.0,4.4683,97.9683,68.0,84.51,84.51,78.0,7.54
vallenar,CL,1624087833.0,-28.5708,-70.7581,60.0,52.68,52.68,0.0,3.44
ijaki,US,1624087413.0,71.2906,-156.7887,71.0,48.22,48.22,75.0,5.75
barrow,NZ,1624087414.0,-46.1927,168.8643,96.0,41.49,41.49,14.0,3.71
mataura,MU,1624087414.0,-20.4081,57.7,69.0,77.29,77.29,40.0,6.91
mahebourg,TO,1624087415.0,-21.2,-175.2,94.0,73.56,73.56,20.0,4.61
vaini,SJ,1624087416.0,78.2186,15.6401,81.0,37.24,37.24,75.0,18.41
longyearbyen,GL,1624087417.0,69.2167,-51.1,70.0,39.22,39.22,1.0,3.44
ilulissat,CA,1624087417.0,50.2001,-66.3821,96.0,54.05,54.12,90.0,3.44
sept-iles,VU,1624087418.0,-13.8833,167.55,74.0,81.41,81.41,35.0,14.09
sola,AU,1624087419.0,-33.65,115.3333,71.0,61.05,61.05,100.0,16.28
busselton,NA,1624087420.0,-22.116,14.2845,71.0,62.15,62.15,1.0,2.42
henties bay,US,1624087420.0,64.5011,-165.4064,48.0,64.47,65.16,1.0,6.91
nome,GL,1624087421.0,65.6145,-37.6368,71.0,33.96,33.96,2.0,4.47
tasiilaq,CA,1624087422.0,50.6996,-127.4199,100.0,50.18,50.18,90.0,2.3
port hardy,PG,1624087422.0,-6.1219,141.2906,82.0,79.66,79.66,87.0,3.76
kiunga,EC,1624087423.0,-0.7393,-90.3518,92.0,73.54,73.54,37.0,7.0
puerto ayora,PK,1624087424.0,32.9334,72.8585,16.0,99.23,99.23,1.0,6.11
chakwal,PF,1624087425.0,-23.1203,-134.9692,71.0,75.2,75.2,100.0,21.18
rikitea,RO,1624087426.0,46.4333,26.4,98.0,61.72,61.72,100.0,6.98
asau,NG,1624087426.0,12.8791,10.4526,47.0,85.86,85.86,100.0,10.83
nguru,CL,1624087427.0,-53.15,-70.9167,69.0,35.71,35.71,0.0,6.91
punta arenas,BR,1624087428.0,-30.1811,-50.2056,86.0,58.28,58.28,100.0,13.06
cidreira,CA,1624087429.0,69.4541,-133.0374,56.0,48.04,48.04,100.0,15.86
tuktoyaktuk,AR,1624087229.0,-54.8,-68.3,93.0,38.86,38.86,75.0,3.44
ushuaia,CF,1624087430.0,5.3998,26.4869,77.0,75.24,75.24,78.0,4.16
obo,BR,1624087431.0,-22.9661,-42.0278,76.0,68.79,68.79,28.0,14.65
arraial do cabo,US,1624087848.0,42.6001,-73.9662,95.0,66.83,73.35,79.0,2.84
albany,RU,1624087432.0,65.9667,78.3667,57.0,48.06,48.06,100.0,18.86
urengoy,PT,1624087433.0,39.05,-27.9833,83.0,65.79,65.79,6.0,13.89
lagoa,SA,1624087433.0,21.4267,39.8261,14.0,102.83,102.83,7.0,8.97
mecca,BR,1624087434.0,-15.8631,-38.8828,87.0,66.7,66.7,100.0,10.04
belmonte,BR,1624087435.0,-7.738,-72.6509,81.0,72.77,72.77,77.0,2.17
rodrigues alves,RU,1624087435.0,49.758,129.523,70.0,70.32,70.32,18.0,14.45
shirokiy,AU,1624087317.0,-42.8794,147.3294,88.0,49.77,51.03,75.0,8.05
hobart,US,1624087437.0,22.0752,-159.319,83.0,73.63,78.78,40.0,11.5
kapaa,NU,1624087439.0,-19.0595,-169.9187,100.0,73.29,73.29,18.0,8.05
marcona,RU,1624087439.0,50.6789,156.125,94.0,43.2,43.2,100.0,5.21
mrirt,PT,1624087440.0,38.5167,-28.7,88.0,64.8,64.8,20.0,9.22
alofi,US,1624087441.0,45.7833,-108.5007,36.0,65.52,67.28,1.0,5.75
severo-kurilsk,RU,1624087441.0,59.7035,30.7861,45.0,79.23,80.8,0.0,8.01
ribeira grande,US,1624087442.0,57.79,-152.4072,93.0,47.71,47.71,90.0,3.44
billings,AU,1624087443.0,-34.7333,135.8667,63.0,55.33,55.33,100.0,6.46
nikolskoye,PH,1624087444.0,10.9995,122.6711,69.0,86.92,86.92,100.0,11.81
kodiak,US,1624087208.0,36.7281,-108.2187,27.0,78.58,79.48,1.0,16.11
port lincoln,KZ,1624087446.0,48.6814,71.6433,36.0,62.35,62.35,11.0,20.87
dingle,BB,1624087446.0,13.2167,-59.5167,73.0,79.41,79.41,40.0,16.11
farmington,US,1624087448.0,44.9,-89.7668,82.0,60.33,65.73,75.0,0.0
sentyabrskiy,IN,1624087449.0,28.0667,95.3333,72.0,87.37,87.37,65.0,2.86
atasu,CA,1624087450.0,55.7435,-97.8558,93.0,41.16,41.16,1.0,0.0
bathsheba,ZA,1624087450.0,-33.5906,26.891,64.0,60.39,60.39,5.0,7.49
taolanaro,IR,1624087451.0,37.3807,55.4916,51.0,89.2,89.2,20.0,6.91
jiddah,ZA,1624087452.0,-34.4187,19.2345,56.0,65.89,65.89,16.0,8.1
marathon,RU,1624087453.0,70.6333,147.9167,33.0,73.51,73.51,100.0,6.17
pasighat,RU,1624087453.0,73.5069,80.5464,93.0,31.64,31.64,35.0,9.33
thompson,ID,1624087454.0,-3.8004,102.2655,66.0,84.22,84.22,100.0,6.15
port alfred,MM,1624087455.0,20.4667,94.8833,77.0,80.51,80.51,100.0,14.27
kalaleh,PW,1624087455.0,7.0419,134.2556,70.0,84.07,84.07,100.0,7.9
hermanus,MV,1624087456.0,-0.6,73.0833,70.0,83.77,83.77,100.0,8.68
chokurdakh,PF,1624087457.0,-16.4833,-151.75,76.0,80.92,80.92,20.0,15.52
dikson,RU,1624087458.0,71.6872,128.8694,33.0,69.71,69.71,98.0,13.29
bengkulu,PT,1624087458.0,32.6667,-17.1,52.0,64.4,66.83,55.0,6.2
yenangyaung,AU,1624087459.0,-35.5667,138.6167,93.0,54.27,57.2,77.0,1.99
kloulklubed,BR,1624087460.0,-24.7911,-50.0119,99.0,51.78,51.78,100.0,8.55
hithadhoo,CA,1624087283.0,62.456,-114.3525,57.0,48.72,48.72,20.0,16.11
faanui,GL,1624087461.0,60.1432,-45.2371,75.0,39.97,39.97,100.0,10.71
tiksi,MG,1624087463.0,-15.4333,49.7333,86.0,73.49,73.49,72.0,5.84
ponta do sol,RU,1624087464.0,66.0,111.5,24.0,78.26,78.26,93.0,3.91
victor harbor,MX,1624087465.0,30.4833,-115.95,91.0,62.62,62.62,16.0,7.25
castro,RU,1624087465.0,68.75,161.3,54.0,50.32,50.32,30.0,5.7
yellowknife,RU,1624087466.0,64.9225,77.785,65.0,46.74,46.74,100.0,20.67
nanortalik,AU,1624087435.0,-35.3,148.2167,69.0,49.15,49.15,5.0,2.84
belushya guba,PF,1624087468.0,-9.8,-139.0333,79.0,78.87,78.87,24.0,21.39
maroantsetra,RU,1624087469.0,71.9167,114.0833,36.0,80.22,80.22,27.0,8.05
toliary,CL,1624087469.0,-41.8697,-73.8203,86.0,33.33,33.33,33.0,3.87
aykhal,KI,1624087470.0,3.0707,172.7902,70.0,83.14,83.14,48.0,5.21
san quintin,ML,1624087471.0,20.1986,1.0114,22.0,92.34,92.34,0.0,10.38
cherskiy,US,1624087472.0,31.4229,-103.4932,38.0,79.34,81.82,1.0,9.22
tarko-sale,RU,1624087472.0,67.4667,78.7,58.0,46.15,46.15,100.0,12.77
tumut,CN,1624087473.0,41.1231,80.2644,21.0,83.26,83.26,5.0,3.74
barentsburg,DJ,1624087300.0,11.5,42.5,22.0,96.22,96.22,100.0,12.35
atuona,CA,1624087474.0,54.7682,-101.865,55.0,48.07,48.07,51.0,6.13
saskylakh,PT,1624087475.0,37.7167,-25.4333,82.0,64.81,64.81,9.0,6.96
ancud,MX,1624087476.0,27.9769,-114.0611,91.0,63.34,63.34,2.0,14.25
butaritari,US,1624087476.0,40.5982,-124.1573,68.0,54.99,57.42,90.0,4.0
tessalit,RU,1624087477.0,69.7008,170.3133,93.0,34.83,34.83,82.0,2.71
pecos,ES,1624087478.0,28.6585,-17.9182,77.0,61.12,64.15,75.0,16.11
tazovskiy,US,1624087223.0,45.5234,-122.6762,71.0,57.58,60.85,20.0,1.01
aksu,BS,1624087479.0,26.5412,-77.0636,81.0,80.35,80.35,100.0,10.67
jibuti,PG,1624087480.0,-2.0226,147.2712,71.0,83.05,83.05,25.0,4.0
flin flon,AU,1624087233.0,-31.4333,152.9167,88.0,56.64,59.9,75.0,18.41
vila franca do campo,CN,1624087481.0,37.8086,120.7508,28.0,83.98,83.98,0.0,13.8
guerrero negro,HN,1624087482.0,15.75,-84.4833,94.0,75.25,75.25,100.0,2.04
fortuna,US,1624087483.0,19.7297,-155.09,78.0,71.92,76.28,1.0,4.61
pevek,MX,1624087432.0,22.8909,-109.9124,74.0,83.23,85.3,0.0,12.68
los llanos de aridane,AU,1624087484.0,-42.7826,147.0587,80.0,48.96,50.67,80.0,1.7
portland,NA,1624087485.0,-26.5833,18.1333,33.0,59.72,59.72,1.0,9.8
marsh harbour,BR,1624087260.0,-26.7694,-48.6458,98.0,55.81,58.82,100.0,7.58
lorengau,MA,1624087487.0,35.174,-2.9287,68.0,68.25,68.25,75.0,11.5
port macquarie,GL,1624087488.0,77.484,-69.3632,61.0,32.95,32.95,15.0,4.74
dengzhou,AR,1624087488.0,-38.3739,-60.2798,79.0,38.12,38.12,100.0,4.32
brus laguna,ZA,1624087489.0,-34.5322,20.0403,82.0,51.12,51.12,0.0,6.91
hilo,NC,1624087490.0,-20.5667,164.2833,77.0,74.21,74.21,100.0,4.61
cabo san lucas,TR,1624087491.0,36.985,35.2881,61.0,80.38,82.92,40.0,4.61
new norfolk,PG,1624087491.0,-6.2167,155.6333,80.0,80.2,80.2,100.0,1.9
tsihombe,PH,1624087492.0,15.6167,120.9333,61.0,87.08,87.08,98.0,13.98
keetmanshoop,CH,1624087493.0,46.3592,6.9759,78.0,65.01,67.64,100.0,1.99
penha,BR,1624087494.0,-13.6092,-42.9389,68.0,66.87,66.87,99.0,9.69
samusu,CK,1624087495.0,-21.2078,-159.775,83.0,77.05,77.05,75.0,11.5
nador,FR,1624087496.0,48.6252,6.3497,61.0,76.62,76.98,0.0,2.3
qaanaaq,US,1624087403.0,20.8947,-156.47,78.0,74.39,76.84,1.0,16.11
tres arroyos,NZ,1624087497.0,-46.2817,169.8464,91.0,46.87,46.87,100.0,5.12
bredasdorp,RU,1624087498.0,65.5833,-171.0,65.0,50.34,50.34,58.0,2.93
koumac,PK,1624087499.0,24.3539,68.2671,44.0,96.73,96.73,4.0,18.3
adana,PE,1624087500.0,-8.1842,-76.5125,98.0,65.44,65.44,98.0,0.18
kieta,MU,1624087500.0,-20.2078,57.7625,65.0,77.09,77.11,4.0,13.24
talavera,RU,1624087501.0,65.85,74.4859,38.0,55.33,55.33,100.0,10.29
luan,CA,1624087502.0,50.5834,-111.8851,60.0,56.14,57.18,99.0,6.91
mys shmidta,IS,1624087503.0,63.8424,-22.4338,87.0,44.51,45.07,75.0,3.44
riacho de santana,CL,1624087504.0,-37.6167,-73.65,84.0,46.81,46.81,0.0,3.15
avarua,RU,1624087505.0,69.4865,88.3972,82.0,43.47,43.47,100.0,4.52
dombasle-sur-meurthe,BR,1624087506.0,-5.1206,-60.3797,95.0,72.07,72.07,94.0,2.24
kahului,ZA,1624087483.0,-33.0153,27.9116,67.0,61.74,61.74,0.0,3.44
kaitangata,US,1624087222.0,42.097,-79.2353,92.0,69.13,71.19,75.0,1.01
lavrentiya,GL,1624087508.0,72.7868,-56.1549,64.0,36.1,36.1,38.0,4.92
vaitupu,RU,1624087508.0,68.0531,39.5131,95.0,44.65,44.65,100.0,18.48
jati,MY,1624087509.0,5.4112,100.3354,72.0,87.94,89.55,40.0,1.01
tocache,BW,1624087510.0,-24.6,26.4333,63.0,56.26,56.26,0.0,3.96
quatre cocos,JP,1624087511.0,42.975,144.3747,82.0,54.55,54.55,75.0,8.05
pangody,IS,1624087512.0,64.2539,-15.2082,70.0,44.69,44.69,100.0,4.5
brooks,CA,1624087512.0,48.6499,-53.1147,82.0,48.2,48.2,100.0,10.29
grindavik,RU,1624087513.0,68.0546,166.4372,54.0,49.98,49.98,100.0,10.0
lebu,ZA,1624087515.0,-33.0117,17.9442,47.0,55.45,55.45,2.0,8.34
talnakh,ZA,1624087263.0,-33.9258,18.4232,76.0,54.88,66.11,0.0,2.3
vreed en hoop,IT,1624087516.0,41.6333,14.5833,52.0,73.4,85.95,56.0,2.13
novo aripuana,IN,1624087517.0,15.5181,73.7626,100.0,82.4,82.4,90.0,11.5
east london,RU,1624087518.0,65.3718,58.0387,43.0,61.77,61.77,100.0,10.25
jamestown,PG,1624087455.0,-9.4431,147.1797,74.0,81.82,81.82,40.0,11.5
upernavik,BR,1624087519.0,-5.1833,-68.9,99.0,69.53,69.53,37.0,1.99
ostrovnoy,GR,1624087520.0,41.15,24.9333,90.0,70.2,73.69,100.0,2.28
georgetown,LR,1624087521.0,5.8808,-10.0467,88.0,73.36,73.36,80.0,3.6
mmathubudukwane,LK,1624087521.0,6.9895,81.0557,37.0,88.05,88.05,97.0,2.08
nizhneyansk,QA,1624087389.0,25.2867,51.5333,26.0,100.69,102.51,0.0,16.11
kushiro,SB,1624087523.0,-8.145,159.5921,79.0,81.21,81.21,98.0,4.76
hofn,PT,1624087523.0,40.1629,-8.3327,95.0,58.62,60.93,100.0,1.12
bonavista,CN,1624087524.0,47.8667,88.1167,22.0,85.44,85.44,81.0,13.29
bilibino,US,1624087526.0,31.6546,-106.3033,20.0,83.37,88.56,1.0,4.61
asayita,IT,1624087526.0,45.6317,12.5694,80.0,78.71,81.18,11.0,3.09
saldanha,SO,1624087527.0,9.4942,50.8122,49.0,88.75,88.75,100.0,29.62
cape town,ID,1624087528.0,-2.4177,115.2494,86.0,83.28,83.28,88.0,3.11
campobasso,MY,1624087528.0,4.4818,118.6112,66.0,88.0,88.0,45.0,5.75
taburi,NG,1624087529.0,11.5233,7.3081,73.0,76.03,76.03,100.0,13.15
candolim,RU,1624087530.0,63.0128,112.4714,29.0,78.12,78.12,100.0,3.67
synya,NO,1624087531.0,69.3143,16.1194,81.0,48.22,52.07,75.0,19.57
port moresby,AU,1624087531.0,-33.8667,121.9,50.0,60.64,60.64,11.0,11.97
jutai,TR,1624087532.0,38.6908,35.5538,43.0,72.27,72.27,0.0,3.44
kimmeria,IS,1624087533.0,63.4427,-20.2734,75.0,44.35,44.35,100.0,3.4
buchanan,JP,1624087534.0,39.4667,141.95,98.0,64.81,64.81,100.0,8.5
badulla,JP,1624087534.0,33.7333,135.3667,90.0,75.92,76.21,75.0,1.01
doha,RU,1624087535.0,62.55,155.55,38.0,55.17,55.17,100.0,17.16
buala,ZA,1624087536.0,-34.0033,24.7314,63.0,57.07,57.07,4.0,7.99
lata,NZ,1624087537.0,-46.6,168.3333,86.0,41.81,41.81,0.0,13.76
altay,NZ,1624087537.0,-46.1333,167.6833,87.0,41.83,41.83,0.0,4.0
illoqqortoormiut,AU,1624087334.0,-23.7,133.8833,47.0,56.75,56.75,90.0,8.05
socorro,MU,1624087539.0,-20.3428,57.7575,69.0,77.25,77.25,40.0,6.91
san dona di piave,KE,1624087539.0,-3.4019,38.364,63.0,65.5,65.5,100.0,8.99
bandarbeyla,ES,1624087540.0,42.569,-0.5499,65.0,66.94,67.12,100.0,5.26
amuntai,AR,1624087541.0,-24.7859,-65.4117,87.0,39.09,39.79,90.0,1.99
semporna,US,1624087541.0,21.3469,-158.0858,67.0,74.62,77.32,1.0,4.61
funtua,CD,1624087542.0,-2.95,25.95,70.0,76.71,76.71,100.0,0.11
chernyshevskiy,AU,1624087543.0,-38.2667,141.9667,75.0,53.51,53.51,100.0,10.92
andenes,VE,1624087544.0,8.1222,-63.5497,88.0,75.54,75.54,35.0,7.61
esperance,ES,1624087544.0,42.7762,-9.0603,87.0,58.24,60.24,88.0,4.61
talas,RU,1624087545.0,61.5734,31.4792,67.0,63.88,63.88,5.0,8.16
vestmannaeyjar,AU,1624087546.0,-21.15,149.2,59.0,64.04,64.38,50.0,5.75
yamada,EG,1624087546.0,29.2041,25.5195,20.0,87.48,87.48,0.0,9.4
tanabe,MX,1624087547.0,27.75,-107.6333,39.0,54.81,54.81,2.0,4.32
dukat,ES,1624087548.0,28.963,-13.5477,60.0,67.98,68.07,20.0,12.66
kruisfontein,US,1624087313.0,24.5557,-81.7826,83.0,82.24,82.99,90.0,11.5
bluff,AU,1624087550.0,-32.55,115.7,65.0,64.94,67.21,100.0,17.56
tuatapere,NZ,1624087386.0,-41.4122,175.5153,93.0,47.17,48.83,100.0,11.92
alice springs,RU,1624087551.0,58.0006,102.6619,36.0,78.39,78.39,100.0,6.51
bambous virieux,NA,1624087552.0,-26.6481,15.1594,31.0,71.4,71.4,5.0,8.68
wundanyi,US,1624087359.0,41.3712,-73.414,78.0,66.78,69.94,99.0,7.83
jaca,OM,1624087553.0,17.0151,54.0924,79.0,84.29,84.29,40.0,13.8
salta,TR,1624087554.0,41.2131,27.1069,71.0,71.06,71.06,98.0,8.16
makakilo city,PG,1624087390.0,-2.5744,150.7967,73.0,81.81,81.81,97.0,5.86
kindu,IL,1624087556.0,29.5581,34.9482,34.0,82.24,82.24,0.0,13.8
codrington,CA,1624087556.0,47.6666,-52.7314,76.0,56.26,57.97,90.0,6.91
ciudad bolivar,CN,1624087557.0,41.6892,122.1128,22.0,87.57,87.57,58.0,10.4
muros,CO,1624087417.0,11.5444,-72.9072,82.0,79.74,79.74,84.0,10.89
pitkyaranta,CA,1624087558.0,66.1451,-65.7125,77.0,40.57,40.57,100.0,4.59
mackay,NO,1624087559.0,70.3705,31.1107,76.0,46.38,46.38,75.0,12.66
siva,AR,1624087560.0,-38.0023,-57.5575,54.0,42.53,43.12,100.0,5.99
creel,RU,1624087560.0,59.7775,30.8181,45.0,78.89,80.96,0.0,8.32
ituni,RU,1624087561.0,71.9667,102.5,59.0,56.21,56.21,100.0,8.32
arrecife,MX,1624087264.0,29.0667,-110.9667,44.0,88.14,91.31,1.0,11.01
key west,BR,1624087563.0,-14.7447,-50.5706,45.0,69.71,69.71,100.0,3.0
mandurah,HN,1624087564.0,14.7667,-88.3333,96.0,68.61,68.61,100.0,2.17
waipawa,MZ,1624087564.0,-19.1164,33.4833,100.0,60.66,60.66,75.0,9.22
ust-ilimsk,ZA,1624087565.0,-33.918,25.5701,82.0,53.89,53.89,0.0,6.91
luderitz,BR,1624087566.0,-30.5439,-52.5219,98.0,45.5,45.5,100.0,5.48
bethel,AU,1624087567.0,-34.5833,150.8552,75.0,57.81,58.21,100.0,8.99
salalah,LY,1624087567.0,26.5921,12.7805,19.0,90.18,90.18,0.0,10.45
hayrabolu,MU,1624087568.0,-19.9842,57.6142,64.0,77.47,77.49,4.0,5.99
kavieng,RU,1624087569.0,60.34,102.2797,42.0,72.23,72.23,94.0,7.05
formoso do araguaia,FO,1624087569.0,62.2266,-6.589,90.0,47.32,47.32,100.0,16.8
elat,IN,1624087571.0,10.5669,72.642,76.0,83.17,83.17,100.0,21.47
torbay,ID,1624087504.0,5.5577,95.3222,71.0,84.45,84.45,100.0,6.64
heishan,BR,1624087572.0,-20.4431,-53.7592,77.0,59.77,59.77,0.0,1.77
riohacha,TZ,1624087573.0,-7.9139,39.6668,72.0,78.46,78.46,70.0,19.82
pangnirtung,JP,1624087573.0,33.7333,135.9833,99.0,75.9,76.19,100.0,6.76
vardo,AU,1624087574.0,-28.7667,114.6,32.0,68.41,68.41,59.0,10.36
mar del plata,RU,1624087575.0,61.3614,63.5842,50.0,60.62,60.62,99.0,7.54
otradnoye,CO,1624087576.0,2.7923,-76.3226,94.0,53.38,53.38,93.0,3.6
khatanga,AU,1624087576.0,-35.35,150.4667,69.0,56.64,57.87,94.0,22.48
solsvik,BR,1624087577.0,-9.8756,-56.0861,67.0,69.4,69.4,100.0,2.04
hermosillo,CN,1624087578.0,31.7667,104.7167,82.0,70.02,70.02,100.0,2.26
mozarlandia,PE,1624087578.0,-9.0853,-78.5783,89.0,64.8,64.8,91.0,6.96
el nispero,ET,1624087579.0,12.0333,39.0333,28.0,73.96,73.96,17.0,4.97
chimoio,JP,1624087580.0,35.7333,140.8333,85.0,70.65,72.28,100.0,19.1
port elizabeth,US,1624087581.0,34.6391,-120.4579,97.0,57.34,65.1,90.0,0.0
encruzilhada do sul,JP,1624087581.0,35.1333,140.3,82.0,71.11,72.1,100.0,17.22
flinders,US,1624087582.0,57.0531,-135.33,76.0,53.49,53.49,75.0,4.61
awbari,BR,1624087583.0,-7.2586,-64.7981,99.0,71.11,71.11,92.0,1.28
cap malheureux,ES,1624087584.0,42.25,-2.5,86.0,58.95,60.48,100.0,3.29
vanavara,US,1624087585.0,38.421,-121.4238,35.0,77.34,87.62,1.0,5.75
klaksvik,FR,1624087585.0,46.3333,2.6,80.0,72.7,72.7,91.0,4.65
dalneye konstantinovo,CD,1624087586.0,1.2391,23.616,69.0,78.57,78.57,79.0,1.05
kavaratti,NZ,1624087311.0,-45.8742,170.5036,92.0,46.8,46.8,100.0,5.99
banda aceh,NO,1624087587.0,71.0357,27.8492,89.0,42.48,42.48,100.0,6.58
ribas do rio pardo,NO,1624087588.0,62.5833,6.1333,82.0,53.01,55.9,75.0,18.41
kilindoni,ZM,1624087589.0,-17.3667,27.15,44.0,65.14,65.14,59.0,4.63
shingu,NE,1624087590.0,18.6853,12.9164,10.0,94.78,94.78,1.0,2.95
geraldton,TO,1624087575.0,-19.8,-174.35,79.0,76.32,76.32,6.0,16.26
sovetskiy,PH,1624087591.0,7.9986,124.2928,89.0,75.24,75.24,100.0,1.57
jambalo,NE,1624087592.0,14.073,5.96,46.0,86.14,86.14,55.0,10.78
ulladulla,GF,1624087592.0,4.9333,-52.3333,90.0,76.08,76.08,90.0,1.14
alta floresta,NC,1624087593.0,-22.6667,167.4833,79.0,73.63,73.63,63.0,18.16
jiangyou,RE,1624087594.0,-21.3585,55.7679,67.0,76.41,76.59,48.0,10.69
chimbote,PE,1624087594.0,-13.7,-76.2167,82.0,64.45,64.45,90.0,0.0
lalibela,ID,1624087595.0,-5.6667,132.75,77.0,80.92,80.92,99.0,19.93
hasaki,PH,1624087596.0,14.0669,121.3258,48.0,91.27,91.9,27.0,10.76
lompoc,US,1624087597.0,28.017,-97.5169,81.0,77.52,82.83,0.0,5.39
katsuura,VE,1624087597.0,7.7669,-72.225,98.0,64.04,64.04,60.0,3.91
sitka,MR,1624087598.0,20.5169,-13.0499,31.0,77.43,77.43,0.0,11.7
karaul,PL,1624087599.0,54.0028,16.9826,56.0,80.53,80.53,0.0,10.8
labrea,RU,1624087599.0,64.3833,-173.3,60.0,54.0,54.0,100.0,4.41
la rioja,US,1624087600.0,64.8569,-147.8028,59.0,64.08,67.95,75.0,4.61
laguna,PL,1624087601.0,53.3635,17.0408,67.0,80.62,81.84,0.0,11.39
montlucon,AR,1624087601.0,-38.5473,-58.7368,73.0,38.03,38.03,100.0,4.59
basoko,PE,1624087388.0,-8.4753,-74.8058,74.0,75.0,75.0,100.0,0.65
dunedin,RU,1624087603.0,69.3833,178.4167,92.0,37.76,37.76,83.0,3.91
mehamn,ES,1624087476.0,41.3888,2.159,76.0,76.12,79.97,100.0,1.99
roald,IR,1624087604.0,30.1165,55.1186,8.0,87.06,87.06,0.0,16.11
maamba,US,1624087605.0,36.6177,-121.9166,91.0,55.69,67.75,40.0,1.01
bilma,UY,1624087606.0,-33.6971,-53.4616,83.0,51.55,51.55,93.0,3.31
pangai,PF,1624087607.0,-17.5333,-149.3333,82.0,77.02,77.02,13.0,14.58
marawi,RU,1624087608.0,53.5742,52.7972,54.0,68.95,68.95,21.0,8.63
madaoua,MR,1624087609.0,20.5022,-10.0711,30.0,77.52,77.52,0.0,14.56
cayenne,US,1624087338.0,34.2257,-77.9447,83.0,75.63,78.85,1.0,5.75
vao,SA,1624087610.0,18.3851,42.4509,19.0,82.92,84.31,31.0,7.4
saint-philippe,RU,1624087611.0,59.1333,37.9,50.0,78.62,78.62,0.0,11.18
pisco,US,1624087612.0,42.0751,-72.0334,80.0,65.66,68.88,84.0,10.4
tual,RU,1624087612.0,60.733,56.7202,98.0,53.96,53.96,100.0,5.64
san pablo,IT,1624087613.0,45.1667,10.7833,69.0,78.62,81.75,100.0,7.0
san patricio,RU,1624087614.0,47.2456,47.0281,35.0,80.38,80.38,6.0,16.11
san cristobal,ID,1624087614.0,-6.0989,106.6381,83.0,81.63,87.62,40.0,5.01
atar,GB,1624087616.0,51.3813,1.3862,94.0,55.81,57.31,100.0,1.99
miastko,AU,1624087617.0,-24.8667,113.6333,34.0,68.07,68.07,2.0,12.66
provideniya,BO,1624087617.0,-20.4597,-66.825,59.0,32.25,32.25,0.0,10.67
college,GE,1624087620.0,41.9563,42.9566,25.0,69.37,69.37,100.0,5.48
zlotow,RU,1624087620.0,61.67,96.37,63.0,71.55,71.55,94.0,6.69
necochea,CN,1624087621.0,25.4872,119.1986,85.0,87.69,87.69,100.0,7.56
campoverde,US,1624087622.0,42.1584,-72.3287,71.0,66.54,70.41,88.0,1.01
leningradskiy,MA,1624087623.0,29.5833,-9.5,82.0,57.42,57.42,67.0,5.19
barcelona,CN,1624087624.0,30.5448,119.9599,91.0,70.95,70.95,100.0,3.56
shahr-e babak,RU,1624087625.0,60.7253,114.9278,42.0,74.43,74.43,100.0,7.09
grand river south east,BR,1624087626.0,-13.275,-50.1628,50.0,70.72,70.72,98.0,2.28
pacific grove,IS,1624087627.0,66.0449,-17.3389,96.0,40.91,40.91,100.0,4.36
chuy,US,1624087625.0,37.1041,-113.5841,14.0,93.79,93.79,1.0,10.36
tiarei,AO,1624087628.0,-6.1349,12.3689,82.0,75.25,75.25,3.0,5.61
umzimvubu,ET,1624087629.0,9.8,38.7333,35.0,66.38,66.38,100.0,4.38
asekeyevo,MX,1624087629.0,16.2333,-94.65,83.0,78.91,78.91,100.0,3.51
adrar,CA,1624087505.0,48.4001,-89.3168,79.0,55.35,55.38,75.0,5.75
wilmington,BR,1624087631.0,-5.1989,-35.4608,92.0,72.5,72.5,10.0,11.86
faya,JP,1624087631.0,26.1247,127.6694,87.0,85.53,86.4,75.0,14.97
cherepovets,BB,1624087632.0,13.0667,-59.5333,73.0,78.89,78.89,40.0,16.11
southbridge,IR,1624087633.0,31.2656,56.8055,8.0,87.53,87.53,0.0,6.29
nyrob,RU,1624087634.0,53.5739,142.9478,50.0,57.83,57.83,24.0,5.3
mantua,US,1624087635.0,55.3422,-131.6461,82.0,54.07,54.07,90.0,5.75
yenotayevka,RU,1624087636.0,51.3223,42.7678,58.0,69.49,69.49,3.0,10.47
teluknaga,MX,1624087637.0,15.85,-97.0667,84.0,77.54,77.54,83.0,5.48
karamay,AR,1624087638.0,-41.1456,-71.3082,67.0,32.45,32.45,90.0,4.61
margate,US,1624087638.0,36.5708,-119.6121,48.0,84.94,91.71,1.0,5.75
carnarvon,MV,1624087640.0,6.6221,73.07,76.0,82.51,82.51,100.0,13.85
uyuni,NA,1624087640.0,-18.0607,13.84,34.0,60.39,60.39,0.0,9.98
skagastrond,RU,1624087641.0,57.3033,47.8861,65.0,73.63,73.63,34.0,16.28
attawapiskat,CL,1624087642.0,-35.3333,-72.4167,85.0,49.71,49.71,42.0,3.83
amderma,OM,1624087643.0,22.9333,57.5333,11.0,105.84,105.84,83.0,5.21
khani,RU,1624087644.0,66.4167,112.4,22.0,81.28,81.28,99.0,4.99
baykit,US,1624087645.0,58.3019,-134.4197,96.0,50.23,53.65,100.0,4.0
jiangkou,SB,1624087646.0,-9.4333,159.95,83.0,80.19,80.19,100.0,4.97
palmer,JP,1624087646.0,26.1842,127.7558,89.0,83.71,85.68,90.0,12.66
saleaula,BJ,1624087647.0,7.9281,1.9756,83.0,77.11,77.11,47.0,3.83
tiznit,AU,1624087648.0,-37.8333,140.7667,82.0,53.51,53.51,82.0,8.05
deqing,CI,1624087649.0,4.423,-7.3528,81.0,78.03,78.03,78.0,6.55
soyaltepec,AU,1624087649.0,-24.85,152.35,42.0,65.21,65.21,8.0,3.0
lensk,RU,1624087650.0,63.8986,122.7617,33.0,82.76,82.76,100.0,4.21
sao miguel do araguaia,SO,1624087651.0,5.3505,48.5268,63.0,83.8,83.8,14.0,26.26
husavik,US,1624087651.0,31.6002,-94.6335,95.0,71.04,74.39,1.0,0.0
saint george,CN,1624087652.0,36.0986,120.3719,33.0,92.8,92.8,0.0,13.42
soyo,ZA,1624087653.0,-28.783,32.0377,77.0,65.05,65.05,86.0,2.1
fiche,CA,1624087654.0,47.4411,-70.4986,96.0,61.25,64.89,100.0,15.01
san francisco del mar,CN,1624087654.0,35.6003,103.2064,45.0,65.35,65.35,100.0,1.61
thunder bay,PE,1624087655.0,-7.8447,-79.1469,90.0,64.8,64.8,85.0,5.55
touros,GE,1624087656.0,41.7986,43.4832,29.0,79.25,79.25,100.0,10.38
itoman,IN,1624087656.0,24.9667,77.5667,46.0,90.54,90.54,98.0,13.8
oistins,NZ,1624087386.0,-35.1667,173.1667,89.0,60.82,60.82,100.0,8.28
ravar,RU,1624087658.0,67.6803,53.1512,89.0,46.53,46.53,100.0,20.02
tome-acu,NO,1624087658.0,70.9821,25.9704,89.0,41.63,41.63,100.0,2.33
okha,NZ,1624087659.0,-39.2,173.8833,92.0,48.69,50.41,100.0,6.55
tuggurt,UY,1624087660.0,-34.4833,-54.3333,90.0,46.31,46.31,91.0,1.68
ketchikan,ID,1624087661.0,-8.345,113.6058,78.0,83.03,83.03,32.0,7.7
kamenka,KY,1624087661.0,19.2833,-81.25,58.0,79.84,81.93,86.0,14.67
puerto escondido,HK,1624087499.0,22.2855,114.1577,85.0,88.5,93.25,96.0,11.01
san carlos de bariloche,AR,1624087663.0,-34.6534,-58.6198,88.0,42.51,44.35,73.0,2.62
selma,UA,1624087663.0,49.8425,36.5477,64.0,75.58,75.58,0.0,14.83
mullaitivu,PG,1624087664.0,-2.6741,141.3028,79.0,81.91,81.91,20.0,5.06
kulhudhuffushi,ID,1624087665.0,-0.8667,134.0833,78.0,81.54,81.54,40.0,3.74
opuwo,CA,1624087665.0,63.7506,-68.5145,100.0,31.69,31.73,75.0,8.99
yaransk,BR,1624087666.0,-20.3297,-40.2925,94.0,64.35,64.35,75.0,4.61
hunza,MU,1624087667.0,-20.0064,57.6608,64.0,77.38,77.4,3.0,5.99
constitucion,MG,1624087668.0,-14.9003,50.2788,82.0,75.58,75.58,32.0,10.16
lolua,PH,1624087446.0,17.4414,121.2019,53.0,82.27,82.27,35.0,4.94
nizwa,AU,1624087622.0,-33.8679,151.2073,80.0,56.7,58.75,75.0,1.99
udachnyy,IN,1624087669.0,18.0,76.0833,70.0,78.44,78.44,100.0,16.96
juneau,GL,1624087666.0,60.9167,-46.05,72.0,44.82,44.82,100.0,1.25
honiara,CO,1624087671.0,4.7059,-74.2302,94.0,53.69,53.69,75.0,5.75
nishihara,SB,1624087671.0,-8.7676,160.7034,76.0,80.44,80.44,100.0,2.21
savalou,HN,1624087672.0,15.5833,-86.1833,84.0,75.25,75.25,90.0,3.62
mount gambier,CD,1624087673.0,-7.0,23.45,36.0,72.39,72.39,32.0,7.47
tabou,TH,1624087674.0,9.5357,99.9357,62.0,91.31,91.31,20.0,11.5
bundaberg,RU,1624087674.0,50.0833,132.1667,76.0,66.0,66.0,100.0,10.02
kysyl-syr,RU,1624087675.0,61.2767,108.0108,43.0,73.6,73.6,89.0,7.58
hobyo,ES,1624087676.0,43.5167,-8.1528,94.0,57.18,58.59,100.0,4.52
nacogdoches,CN,1624087676.0,40.8106,111.6522,17.0,82.69,82.69,20.0,20.13
qingdao,SD,1624087677.0,14.4012,33.5199,43.0,89.92,89.92,100.0,20.49
richards bay,BJ,1624087678.0,6.4965,2.6036,89.0,80.42,80.42,99.0,3.04
baie-saint-paul,BO,1624087679.0,-14.4413,-67.5278,96.0,60.91,60.91,97.0,0.36
linxia,MN,1624087680.0,48.0056,91.6419,20.0,78.44,78.44,6.0,12.48
chicama,CN,1624087681.0,42.8,93.45,6.0,93.45,93.45,100.0,4.36
tsagveri,ZW,1624087681.0,-17.6203,27.3414,46.0,64.81,64.81,94.0,0.83
badarwas,US,1624087898.0,39.1834,-84.5333,96.0,67.37,69.35,1.0,5.01
ahipara,IN,1624087683.0,22.2,78.5833,77.0,76.19,76.19,100.0,10.71
iskateley,TG,1624087683.0,6.9,0.6333,93.0,74.23,74.23,100.0,2.04
honningsvag,ZA,1624087684.0,-26.55,29.1667,85.0,51.31,52.32,61.0,8.01
okato,IT,1624087685.0,44.3201,9.322,72.0,75.27,80.82,100.0,2.3
rocha,IT,1624087686.0,37.8536,15.2885,42.0,77.04,80.85,5.0,6.33
ambulu,RE,1624087686.0,-21.3393,55.4781,67.0,76.42,76.68,20.0,19.57
bodden town,DK,1624087687.0,57.2702,9.941,88.0,67.86,70.27,100.0,1.01
victoria,ID,1624087688.0,-3.5403,118.9707,67.0,84.76,84.76,22.0,4.29
moron,BR,1624087463.0,-3.2033,-52.2064,100.0,69.84,69.84,98.0,2.17
novopokrovka,AR,1624087689.0,-43.3002,-65.1023,80.0,39.2,39.2,0.0,17.58
vanimo,US,1624087448.0,32.4488,-81.7832,88.0,72.23,75.34,75.0,0.0
manokwari,MU,1624087690.0,-20.5167,57.5167,69.0,77.38,77.38,40.0,6.91
iqaluit,PK,1624087691.0,29.0225,66.5916,12.0,80.51,80.51,0.0,1.88
vila velha,AU,1624087693.0,-20.7333,139.5,34.0,62.37,62.37,100.0,10.36
grand gaube,MG,1624087694.0,-25.1667,45.05,61.0,70.25,70.25,100.0,13.29
antalaha,CA,1624087694.0,58.8053,-122.7002,67.0,58.59,58.59,75.0,0.0
balbalan,PG,1624087695.0,-10.6167,150.6667,71.0,79.5,79.5,100.0,11.43
sidney,OM,1624087696.0,22.5667,59.5289,56.0,90.27,90.27,87.0,7.54
tuljapur,NC,1624087696.0,-20.35,164.4333,76.0,75.09,75.09,100.0,6.82
narsaq,NO,1624087697.0,61.9875,5.1352,80.0,48.06,53.2,100.0,18.84
mosquera,PL,1624087698.0,50.9728,18.2182,63.0,80.85,80.85,0.0,8.9
auki,CL,1624087699.0,-45.5752,-72.0662,86.0,22.95,22.95,0.0,4.61
prieta,RU,1624087699.0,51.6828,102.1408,35.0,78.13,78.13,99.0,4.0
mwene-ditu,FR,1624087700.0,49.5833,0.3333,88.0,57.69,59.34,90.0,3.44
ko samui,CU,1624087701.0,22.9875,-82.7536,85.0,77.14,77.25,100.0,5.53
tyrma,AO,1624087701.0,-11.7833,19.9167,63.0,60.98,60.98,0.0,4.61
yerbogachen,TH,1624087703.0,9.9658,98.6348,68.0,87.73,87.73,24.0,8.21
naron,RU,1624087703.0,46.4856,135.8833,62.0,61.92,61.92,100.0,4.85
hohhot,PF,1624087705.0,-17.7333,-149.15,83.0,77.02,77.02,36.0,14.56
wad madani,NO,1624087706.0,70.2396,22.3479,92.0,51.94,52.0,100.0,11.86
porto novo,CN,1624087707.0,25.7,100.1833,52.0,78.8,78.8,39.0,9.44
rurrenabaque,IR,1624087708.0,27.1467,57.0801,34.0,94.5,94.5,0.0,8.9
xiongshi,AU,1624087708.0,-31.95,141.4333,71.0,53.31,53.31,90.0,12.66
hovd,RU,1624087709.0,52.15,56.1833,38.0,72.55,72.55,6.0,7.87
hami,AU,1624087710.0,-41.0667,145.9167,79.0,51.8,51.8,49.0,3.4
binga,CA,1624087711.0,49.7834,-74.8492,97.0,55.18,55.18,98.0,4.07
hamilton,MV,1624087712.0,3.7833,72.9667,72.0,84.0,84.0,43.0,12.33
jamai,TD,1624087713.0,11.8091,15.8632,45.0,88.11,88.11,98.0,14.72
kpalime,RU,1624087713.0,59.8518,48.2783,45.0,77.22,77.22,11.0,13.78
secunda,IR,1624087714.0,36.2126,57.6819,17.0,90.68,90.68,0.0,13.8
chiavari,GN,1624087715.0,11.75,-13.2,96.0,73.54,73.54,95.0,1.57
taormina,ID,1624087715.0,-7.95,110.2833,73.0,62.6,62.6,53.0,6.69
saint-pierre,GA,1624087716.0,-3.432,10.6554,85.0,75.34,75.34,87.0,9.4
bronderslev,TL,1624087717.0,-8.9266,125.4092,74.0,66.61,66.61,95.0,2.26
majene,ID,1624087717.0,-0.9492,100.3543,62.0,85.32,85.32,90.0,5.03
altamira,RU,1624087718.0,54.5611,100.5792,44.0,76.37,76.37,94.0,6.08
rawson,BR,1624087719.0,-3.3167,-60.35,98.0,75.69,75.69,37.0,2.48
statesboro,KZ,1624087720.0,43.3,52.8,13.0,92.05,92.05,6.0,16.37
souillac,RU,1624087720.0,63.3667,47.9167,47.0,73.38,73.38,100.0,12.59
kalat,US,1624088091.0,42.0548,-72.7704,77.0,66.7,71.13,1.0,1.01
mount isa,NG,1624087722.0,10.5,10.0,53.0,79.99,79.99,27.0,5.21
beloha,MX,1624087603.0,20.7,-105.2,86.0,77.23,77.23,100.0,3.0
fort nelson,US,1624087619.0,33.8545,-84.2171,82.0,71.62,74.43,1.0,5.75
samarai,PH,1624087475.0,14.35,121.0167,63.0,89.69,91.31,40.0,19.57
sur,RU,1624087724.0,65.8167,87.9833,43.0,77.36,77.36,72.0,15.5
ouegoa,US,1624087725.0,41.1415,-73.3579,83.0,67.73,70.93,90.0,3.0
raudeberg,RU,1624087726.0,67.45,153.6833,34.0,62.13,62.13,0.0,10.56
kluczbork,GL,1624087726.0,64.1835,-51.7216,93.0,39.81,39.81,75.0,4.61
coihaique,BR,1624087727.0,-2.9248,-39.9167,86.0,75.78,75.78,100.0,8.14
kyren,ES,1624087728.0,27.9054,-15.4461,45.0,64.94,65.66,20.0,20.71
havre,CA,1624087618.0,49.8844,-97.147,83.0,51.73,55.38,20.0,0.0
mariel,PG,1624087688.0,-3.5534,143.6268,72.0,82.63,82.63,95.0,5.39
luena,US,1624087591.0,26.1906,-97.6961,54.0,77.81,80.51,93.0,6.11
babanusah,IN,1624087731.0,16.7333,82.2167,42.0,91.8,91.8,98.0,11.05
ranong,RU,1624087732.0,61.7333,130.2811,27.0,83.52,83.52,10.0,7.81
vostok,BR,1624087732.0,-6.9811,-34.8339,92.0,72.27,72.27,67.0,10.76
bocaranga,UY,1624087734.0,-33.2333,-54.3833,93.0,45.27,45.27,86.0,3.96
tautira,AR,1624087735.0,-37.3217,-59.1332,84.0,34.11,34.11,15.0,2.15
jabiru,MR,1624087735.0,20.931,-17.0347,77.0,66.18,66.18,0.0,19.57
oksfjord,NO,1624087645.0,70.0311,20.9714,89.0,46.92,46.92,100.0,31.5
dali,CO,1624087737.0,12.5847,-81.7006,83.0,82.42,82.42,75.0,8.05
minab,RU,1624087737.0,65.9939,57.5281,52.0,59.38,59.38,100.0,16.06
broken hill,ES,1624087738.0,29.0605,-13.564,60.0,64.62,64.62,20.0,12.66
matveyevka,BR,1624087471.0,-18.9186,-48.2772,51.0,61.81,61.81,0.0,9.22
hihifo,PH,1624087739.0,7.9868,117.0645,69.0,85.75,85.75,100.0,8.28
burnie,US,1624087712.0,33.194,-82.5271,81.0,73.58,76.87,100.0,5.93
chapais,US,1624087740.0,25.9018,-97.4975,85.0,78.46,80.55,100.0,6.44
mahibadhoo,MY,1624087688.0,4.4148,114.0089,66.0,87.94,87.94,40.0,5.75
dourbali,CL,1624087742.0,-33.0393,-71.6273,86.0,50.0,52.48,0.0,5.75
oparino,US,1624087527.0,46.9965,-120.5479,54.0,63.16,69.93,1.0,7.0
sabzevar,RU,1624087743.0,49.2361,135.1742,70.0,70.92,70.92,100.0,9.19
gaoual,BR,1624087625.0,-3.2778,-39.2689,93.0,72.95,72.95,100.0,7.78
bambanglipuro,RU,1624087745.0,60.8953,131.9608,34.0,79.05,79.05,93.0,7.85
mayumba,NA,1624087745.0,-22.35,16.1333,34.0,62.85,62.85,6.0,9.06
airai,IT,1624087746.0,41.5082,15.3351,42.0,82.49,82.49,0.0,6.91
padang,LY,1624087747.0,31.7561,25.0865,62.0,74.79,74.79,0.0,9.73
tulun,CN,1624087748.0,30.3,108.85,98.0,63.52,63.52,100.0,2.53
manaquiri,ZA,1624087749.0,-31.4707,19.776,39.0,51.33,51.33,0.0,9.57
zhanaozen,YE,1624087706.0,12.7794,45.0367,73.0,88.48,88.48,10.0,14.23
blagoyevo,RU,1624087750.0,63.0494,147.1858,26.0,74.07,74.07,81.0,6.46
southwick,CA,1624087752.0,50.2334,-63.5986,88.0,55.76,55.76,90.0,4.61
bauchi,BW,1624087752.0,-26.0217,22.401,38.0,58.48,58.48,0.0,17.47
ixtapa,RU,1624087754.0,43.0645,44.7417,69.0,75.34,75.34,40.0,6.71
tucker,CA,1624087755.0,65.282,-126.8329,41.0,60.84,60.84,40.0,8.05
san pedro,PE,1624087756.0,-5.0892,-81.1144,83.0,67.01,67.01,58.0,12.35
turukhansk,CO,1624087756.0,6.189,-67.4859,93.0,74.46,74.46,17.0,3.27
westport,RU,1624087757.0,53.4186,59.0472,39.0,67.03,67.03,37.0,11.18
srednekolymsk,CN,1624087758.0,35.0806,109.0897,30.0,82.71,82.71,73.0,3.0
nuuk,ES,1624087759.0,38.7621,-3.3848,53.0,56.28,59.97,100.0,5.26
itarema,RU,1624087759.0,61.4009,47.4978,37.0,78.31,78.31,39.0,14.25
aguimes,ES,1624087760.0,37.1882,-3.6067,74.0,59.45,62.55,20.0,3.0
winnipeg,CY,1624087761.0,34.8761,33.586,58.0,80.31,85.24,0.0,10.36
wewak,CA,1624087761.0,70.4692,-68.5914,100.0,32.23,32.23,90.0,8.05
harlingen,RU,1624087762.0,67.8006,130.4114,22.0,79.14,79.14,100.0,5.66
geresk,IR,1624087763.0,36.8163,50.8738,57.0,84.15,84.15,0.0,6.17
yanam,RU,1624087764.0,51.6703,45.5953,58.0,67.84,67.84,2.0,7.63
mayya,US,1624087764.0,45.1805,-89.6835,72.0,59.9,63.82,90.0,17.27
cabedelo,AU,1624087765.0,-20.0167,148.2333,46.0,66.42,66.42,9.0,6.15
malwan,CN,1624087766.0,28.3669,121.36,95.0,77.92,77.92,100.0,9.1
treinta y tres,SS,1624087516.0,5.6,27.4667,78.0,74.8,74.8,68.0,3.47
tandil,FI,1624087767.0,64.2273,27.7285,77.0,59.05,59.05,40.0,6.91
nouadhibou,SN,1624087768.0,14.6937,-17.4441,88.0,75.33,75.33,75.0,13.8
skjervoy,RU,1624087769.0,59.3833,143.3,50.0,64.33,64.33,4.0,15.7
san andres,US,1624087537.0,36.0397,-114.9819,15.0,96.08,101.64,1.0,17.27
usinsk,CN,1624087770.0,28.6803,121.4428,95.0,78.01,78.01,100.0,6.2
teguise,RU,1624087771.0,60.05,69.9,30.0,63.61,63.61,70.0,10.02
uberlandia,AU,1624087772.0,-34.6833,150.8667,74.0,57.88,58.37,100.0,8.99
balabac,US,1624087773.0,33.3582,-94.2544,83.0,71.78,73.69,0.0,4.34
avera,CN,1624087773.0,25.3378,110.026,59.0,94.86,94.86,40.0,8.95
brownsville,YE,1624087774.0,14.4,46.4667,17.0,93.38,93.38,5.0,5.26
miri,US,1624087775.0,34.8014,-106.5436,33.0,75.69,83.64,66.0,4.52
valparaiso,TC,1624087775.0,21.4612,-71.1419,86.0,80.85,80.85,100.0,20.36
ellensburg,AU,1624087776.0,-23.5333,148.1667,30.0,66.34,66.34,51.0,10.36
litovko,JP,1624087777.0,34.6667,138.95,90.0,68.56,71.01,100.0,8.23
trairi,LK,1624087778.0,5.9485,80.5353,63.0,87.6,87.6,22.0,14.88
amga,RU,1624087640.0,66.8333,70.8333,56.0,53.69,53.69,100.0,3.71
otjimbingwe,MN,1624087779.0,46.6806,113.2792,38.0,66.42,66.42,53.0,17.72
lucera,RU,1624087780.0,42.7297,133.0839,87.0,58.66,58.66,98.0,11.14
bardiyah,AM,1624087780.0,39.75,44.8,18.0,90.21,90.21,0.0,8.57
fevralsk,ZA,1624087781.0,-30.6497,24.0123,37.0,52.52,52.52,0.0,6.22
lichuan,EG,1624087782.0,31.4044,30.4164,53.0,80.42,80.42,0.0,9.04
calvinia,JP,1624087782.0,39.2667,141.8833,98.0,68.95,68.95,100.0,8.03
aden,CN,1624087783.0,35.2431,115.4411,20.0,94.75,94.75,100.0,9.55
myaundzha,IR,1624087784.0,30.4067,55.9939,7.0,88.92,88.92,0.0,13.31
tsienyane,PA,1624087785.0,9.0333,-79.5,88.0,78.06,78.67,80.0,3.09
havre-saint-pierre,CA,1624087785.0,45.6169,-61.9986,80.0,53.82,57.2,0.0,1.01
tsabong,CF,1624087787.0,8.4109,20.6473,72.0,77.72,77.72,98.0,5.7
phan rang,CL,1624087703.0,-36.827,-73.0498,93.0,48.0,48.0,90.0,4.61
oktyabrskoye,GF,1624087788.0,5.3833,-52.95,88.0,77.45,77.45,33.0,9.93
artyk,GH,1624087789.0,5.7947,0.8973,82.0,80.82,80.82,100.0,8.34
norman wells,RU,1624087659.0,61.95,159.2333,81.0,51.13,51.13,99.0,5.46
paita,CA,1624087729.0,60.7161,-135.0538,66.0,53.8,56.01,20.0,11.99
puerto carreno,MT,1624087791.0,35.8419,14.5431,47.0,81.21,81.21,0.0,2.3
magnitogorsk,ER,1624087792.0,15.3333,38.9333,25.0,75.47,75.47,29.0,10.6
tongchuan,IN,1624087792.0,12.7194,74.8861,79.0,76.15,76.15,100.0,14.76
valdepenas,NA,1624087793.0,-21.9833,16.9167,39.0,61.83,61.83,6.0,13.8
kharitonovo,JP,1624087794.0,28.3667,129.4833,84.0,77.92,77.92,100.0,7.78
grenada,ZA,1624087795.0,-34.0527,23.3716,51.0,61.66,61.66,5.0,4.97
dromolaxia,JP,1624087795.0,43.3236,145.575,88.0,54.03,54.03,80.0,8.01
clyde river,CA,1624087796.0,68.2191,-135.0107,40.0,67.03,68.72,37.0,9.53
batagay-alyta,PT,1624087693.0,33.0833,-16.3333,55.0,62.02,63.36,20.0,12.66
tonekabon,IT,1624087702.0,46.6166,10.7002,73.0,69.67,70.36,100.0,1.01
tatishchevo,RU,1624087798.0,60.3778,92.6267,33.0,82.44,82.44,11.0,2.33
merrill,RU,1624087798.0,60.4667,166.1,75.0,45.79,45.79,100.0,10.02
bowen,TH,1624087799.0,7.4054,99.5156,74.0,82.49,82.49,20.0,4.61
wenling,TZ,1624087800.0,-2.7333,36.6833,69.0,65.71,65.71,100.0,13.8
tambura,AM,1624087801.0,40.1758,44.0186,20.0,86.86,89.46,0.0,10.02
kajaani,US,1624087803.0,40.973,-117.7357,20.0,71.65,71.65,1.0,0.0
dakar,IN,1624087804.0,16.4833,81.8333,41.0,91.69,91.69,95.0,10.31
okhotsk,NG,1624087805.0,9.0833,3.85,80.0,78.15,78.15,46.0,6.98
bargal,RU,1624087806.0,56.4216,53.7757,59.0,74.84,74.84,92.0,17.45
henderson,BR,1624087806.0,-6.6447,-51.995,95.0,68.2,68.2,78.0,0.67
jiaojiang,BR,1624087711.0,-5.795,-35.2094,94.0,71.82,72.25,90.0,9.22
gornopravdinsk,TH,1624087808.0,12.5707,99.9588,66.0,87.82,98.89,20.0,8.05
kiama,ID,1624087808.0,-0.0333,109.3333,89.0,80.58,80.58,75.0,6.91
redwater,IN,1624087811.0,25.5198,90.2201,93.0,74.19,74.19,100.0,3.83
baoning,MX,1624087812.0,19.5333,-96.9167,96.0,61.81,61.81,100.0,1.32
marzuq,SA,1624087813.0,31.6725,38.6637,38.0,79.05,79.05,0.0,6.91
meadow lake,CL,1624087814.0,-36.7423,-72.2985,86.0,43.56,47.28,1.0,1.3
cockburn town,BF,1624087816.0,10.2992,-3.2508,76.0,78.22,78.22,84.0,5.93
emerald,MX,1624087723.0,20.75,-105.3333,86.0,77.99,77.99,100.0,5.91
shimoda,US,1624087817.0,47.6936,-114.1632,64.0,55.6,61.77,55.0,4.0
matara,IN,1624087818.0,26.9167,71.9167,42.0,94.8,94.8,100.0,9.55
yar-sale,SO,1624087654.0,7.9803,49.8164,46.0,88.66,88.66,100.0,29.51
baruun-urt,CR,1624087819.0,10.1483,-85.452,93.0,74.59,74.59,87.0,1.74
vrangel,IN,1624087820.0,24.4167,74.4667,58.0,80.94,80.94,100.0,13.53
surenavan,CA,1624087821.0,50.1001,-91.917,81.0,50.07,50.38,90.0,5.75
de aar,IR,1624087822.0,36.5449,61.1577,9.0,102.34,102.34,0.0,11.5
rosetta,PG,1624087823.0,-5.5502,150.1429,87.0,77.79,77.79,100.0,0.78
kamaishi,TR,1624087824.0,39.6381,34.4672,34.0,77.04,77.04,0.0,3.4
heze,SE,1624087824.0,58.0372,14.9782,39.0,70.39,75.97,30.0,10.07
rafsanjan,SA,1624087826.0,31.3318,37.3428,41.0,77.18,77.18,0.0,16.11
san miguelito,AI,1624087826.0,18.217,-63.0578,77.0,81.0,81.1,12.0,21.47
antigonish,NA,1624087827.0,-17.9333,19.7667,30.0,66.09,66.09,0.0,8.16
skalistyy,US,1624087669.0,33.6634,-116.31,26.0,94.66,98.64,1.0,1.99
ndele,GB,1624087828.0,56.038,-5.4321,87.0,56.01,57.18,100.0,1.81
shibarghan,AU,1624087829.0,-13.8483,136.4192,64.0,73.27,73.27,85.0,8.05
concepcion,SA,1624087830.0,25.0213,37.2685,61.0,85.5,85.5,0.0,14.2
sinnamary,RU,1624087694.0,45.2333,147.8833,70.0,48.45,48.45,19.0,6.2
anloga,AU,1624087831.0,-20.7377,116.8463,38.0,75.42,75.42,0.0,9.51
