City,Country,Date,Latitude,Longitude,Humidity,Temperature,Temp Max,Cloudiness,Wind Speed
qaanaaq,GL,1624185671.0,77.484,-69.3632,63.0,36.16,36.16,0.0,5.14
pitimbu,BR,1624185672.0,-7.4706,-34.8086,78.0,72.19,72.19,29.0,7.27
cape town,ZA,1624185673.0,-33.9258,18.4232,25.0,79.88,82.11,0.0,14.97
mataura,NZ,1624185674.0,-46.1927,168.8643,98.0,38.48,38.48,53.0,3.27
egvekinot,RU,1624185674.0,66.3167,-179.1667,53.0,51.44,51.44,21.0,6.69
sitka,US,1624185675.0,57.0531,-135.33,77.0,57.09,57.09,90.0,3.44
illoqqortoormiut,US,1624185676.0,42.1584,-72.3287,82.0,64.2,67.93,90.0,4.61
palmer,SS,1624185677.0,8.4596,25.678,44.0,88.72,88.72,100.0,2.13
raga,BR,1624185629.0,-24.7911,-50.0119,92.0,52.3,52.3,98.0,4.65
castro,CA,1624185678.0,69.4541,-133.0374,67.0,46.35,46.35,0.0,4.43
tuktoyaktuk,US,1624185679.0,71.2906,-156.7887,93.0,32.02,32.02,90.0,12.66
barrow,CN,1624185680.0,34.0615,108.6291,44.0,90.21,90.21,84.0,2.86
yuxia,ZA,1624185681.0,-34.4187,19.2345,45.0,83.8,83.8,40.0,2.35
hermanus,IS,1624185681.0,64.2539,-15.2082,62.0,50.02,50.02,40.0,13.8
hofn,AR,1624185508.0,-54.8,-68.3,80.0,33.46,33.46,20.0,3.44
ushuaia,CA,1624185683.0,62.456,-114.3525,70.0,45.12,45.12,20.0,5.75
yellowknife,CA,1624185683.0,47.5999,-53.2648,84.0,58.66,61.43,71.0,8.01
bay roberts,CN,1624185684.0,18.8003,110.3967,64.0,88.83,88.83,82.0,13.69
wanning,CL,1624185685.0,-53.15,-70.9167,87.0,35.71,35.71,0.0,8.05
nizhneyansk,VE,1624185686.0,7.7669,-72.225,95.0,64.63,64.63,100.0,3.58
punta arenas,HK,1624185417.0,22.2855,114.1577,77.0,88.43,89.96,100.0,1.99
san cristobal,MR,1624185687.0,20.931,-17.0347,56.0,73.38,73.38,0.0,26.46
victoria,ZM,1624185688.0,-16.1167,23.2667,25.0,78.64,78.64,0.0,8.43
nouadhibou,US,1624185658.0,33.194,-82.5271,94.0,73.33,75.07,72.0,12.88
senanga,MV,1624185689.0,-0.6,73.0833,72.0,83.01,83.01,100.0,10.27
avera,US,1624185690.0,42.6001,-73.9662,93.0,60.06,64.15,11.0,1.57
hithadhoo,KI,1624185691.0,3.0707,172.7902,69.0,82.62,82.62,9.0,4.56
albany,PT,1624185691.0,32.6667,-17.1,65.0,75.76,76.12,28.0,6.2
butaritari,EC,1624185692.0,-0.7393,-90.3518,90.0,72.55,72.55,99.0,5.99
ponta do sol,PE,1624185693.0,-13.7,-76.2167,82.0,64.45,64.45,90.0,4.61
puerto ayora,GL,1624185694.0,72.7868,-56.1549,65.0,35.2,35.2,42.0,8.72
pisco,PF,1624185695.0,-23.1203,-134.9692,75.0,75.27,75.27,8.0,18.88
upernavik,EG,1624185696.0,31.0876,31.595,21.0,82.29,82.29,0.0,10.74
bolshegrivskoye,HT,1624185697.0,18.2,-73.75,83.0,80.08,80.08,99.0,4.34
taolanaro,ZA,1624185698.0,-34.5322,20.0403,29.0,78.12,83.28,45.0,9.22
rikitea,US,1624185699.0,19.7297,-155.09,80.0,68.92,74.28,20.0,5.75
dekernes,RU,1624185699.0,71.9667,102.5,27.0,83.86,83.86,60.0,3.27
les cayes,IS,1624185700.0,65.9702,-18.5286,68.0,46.33,46.33,97.0,1.79
sentyabrskiy,GL,1624185701.0,69.2167,-51.1,61.0,44.62,44.62,75.0,6.91
bredasdorp,CF,1624185701.0,4.95,23.9167,48.0,85.96,85.96,97.0,3.2
hilo,US,1624185702.0,22.0752,-159.319,81.0,71.8,75.52,1.0,12.66
khatanga,ZA,1624185703.0,-34.0527,23.3716,28.0,81.37,81.37,29.0,8.55
dalvik,CA,1624185704.0,47.6666,-52.7314,68.0,59.41,60.67,40.0,16.11
ilulissat,NZ,1624185704.0,-46.2817,169.8464,92.0,45.5,45.5,77.0,5.66
rafai,CO,1624185705.0,8.5756,-73.0949,98.0,73.27,73.27,100.0,2.15
kapaa,NZ,1624185706.0,-46.6,168.3333,86.0,38.8,38.8,44.0,11.48
plettenberg bay,US,1624185707.0,37.1041,-113.5841,27.0,81.32,83.79,1.0,3.0
torbay,MU,1624185707.0,-19.9842,57.6142,54.0,77.47,77.47,73.0,11.99
kaitangata,RU,1624185708.0,71.9167,114.0833,19.0,87.17,87.17,19.0,9.89
el tarra,UA,1624185709.0,48.5753,35.1068,51.0,74.08,76.24,98.0,17.78
bluff,TO,1624185709.0,-21.2,-175.2,100.0,66.36,66.36,20.0,3.44
saint george,SJ,1624185587.0,78.2186,15.6401,87.0,37.24,37.24,75.0,18.41
cap malheureux,BR,1624185712.0,-12.9306,-49.8264,51.0,75.61,75.61,9.0,6.33
saskylakh,RU,1624185713.0,59.2353,163.0719,94.0,43.05,43.05,100.0,11.99
pidhorodne,AU,1624185467.0,-42.8794,147.3294,92.0,40.32,42.66,20.0,6.91
vaini,ES,1624185714.0,28.6585,-17.9182,79.0,65.12,67.75,20.0,13.8
longyearbyen,US,1624185715.0,47.4257,-120.2812,58.0,61.88,69.12,1.0,5.75
mutsamudu,JP,1624185716.0,43.3236,145.575,95.0,47.39,47.39,100.0,20.36
mys shmidta,RU,1624185716.0,69.4865,88.3972,98.0,43.32,43.32,100.0,8.61
araguacu,MX,1624185717.0,22.9,-106.05,81.0,75.04,75.04,99.0,8.03
ossora,MU,1624185718.0,-20.4081,57.7,64.0,75.49,77.25,75.0,14.97
hobart,SD,1624185719.0,15.451,36.4,35.0,91.63,91.63,98.0,10.13
los llanos de aridane,PT,1624185719.0,37.7167,-25.4333,63.0,68.41,68.41,0.0,10.63
east wenatchee bench,RU,1624185720.0,54.3419,101.5036,60.0,74.61,74.61,16.0,6.76
nemuro,BR,1624185721.0,-21.4803,-56.1381,89.0,54.39,54.39,94.0,2.3
talnakh,ZA,1624185722.0,-33.5906,26.891,32.0,82.47,82.47,6.0,14.03
agua verde,RU,1624185723.0,57.1051,41.7305,42.0,83.57,83.57,1.0,6.51
mahebourg,ID,1624185724.0,-0.583,117.095,95.0,75.06,75.06,97.0,2.24
kassala,US,1624185461.0,42.097,-79.2353,97.0,60.64,65.52,40.0,1.01
vila franca do campo,AU,1624185725.0,-33.65,115.3333,90.0,49.05,51.08,85.0,30.02
kuytun,NE,1624185726.0,14.8888,5.2692,40.0,91.38,91.38,0.0,11.5
jardim,CA,1624185727.0,55.7666,-120.2362,93.0,40.77,51.76,1.0,2.3
port alfred,RU,1624185727.0,54.3663,71.7632,95.0,58.48,58.48,100.0,16.08
attawapiskat,NP,1624185728.0,29.2747,82.1838,95.0,63.64,63.64,95.0,3.4
rodniki,AU,1624185729.0,-42.7826,147.0587,86.0,40.42,42.3,11.0,2.01
loa janan,NO,1624185730.0,70.3705,31.1107,84.0,52.0,52.0,100.0,6.98
jamestown,CA,1624185444.0,43.4668,-80.5164,99.0,55.11,59.63,1.0,0.0
busselton,CV,1624185731.0,14.8961,-24.4956,76.0,73.02,73.02,12.0,10.98
tahoua,ZA,1624185732.0,-33.918,25.5701,23.0,84.49,87.1,0.0,6.91
dawson creek,MG,1624185732.0,-14.9003,50.2788,61.0,78.55,78.55,50.0,15.35
poltavka,US,1624185733.0,57.79,-152.4072,93.0,47.71,47.71,90.0,18.41
jumla,VU,1624185734.0,-19.55,169.2667,87.0,75.2,75.2,87.0,4.52
new norfolk,AR,1624185735.0,-34.6534,-58.6198,99.0,38.61,42.98,1.0,2.77
vardo,GL,1624185736.0,60.1432,-45.2371,81.0,45.03,45.03,100.0,3.91
waterloo,NZ,1624185737.0,-35.1,173.7833,96.0,56.32,56.32,97.0,10.45
sao filipe,MM,1624185738.0,22.9333,97.75,86.0,75.18,75.18,67.0,3.04
port elizabeth,RU,1624185739.0,66.8333,70.8333,54.0,54.57,54.57,99.0,18.52
antalaha,PF,1624185739.0,-9.8,-139.0333,79.0,78.87,78.87,54.0,22.57
kodiak,PH,1624185741.0,7.4525,126.5842,87.0,80.11,80.11,84.0,8.84
mrirt,BR,1624185741.0,-22.9661,-42.0278,78.0,69.66,69.66,75.0,11.5
isangel,PE,1624185742.0,-11.9472,-75.2829,78.0,43.11,43.11,73.0,1.43
moron,GL,1624185743.0,66.9395,-53.6735,81.0,37.51,37.51,100.0,8.84
nanortalik,ZA,1624185745.0,-26.5333,29.9833,38.0,59.76,59.76,20.0,4.61
karaul,HT,1624185745.0,18.4423,-73.0876,79.0,80.4,80.4,99.0,1.95
kaeo,ES,1624185746.0,43.5357,-5.6615,77.0,66.56,70.81,78.0,5.01
lashio,RU,1624185747.0,68.75,161.3,53.0,57.69,57.69,82.0,9.31
yar-sale,VE,1624185747.0,8.1222,-63.5497,88.0,75.25,75.25,34.0,6.8
atuona,IN,1624185748.0,17.9833,74.4333,49.0,85.24,85.24,37.0,18.32
belushya guba,KZ,1624185749.0,49.1447,56.4872,24.0,87.93,87.93,0.0,17.31
baculin,KE,1624185750.0,-2.2717,40.902,68.0,80.38,80.38,19.0,19.17
arraial do cabo,RU,1624185751.0,70.6333,147.9167,32.0,63.66,63.66,0.0,11.92
san jeronimo,PG,1624185728.0,-9.4431,147.1797,78.0,78.22,78.22,40.0,3.44
kleck,RU,1624185752.0,73.5069,80.5464,85.0,32.79,32.79,5.0,6.78
sisimiut,RU,1624185753.0,69.3833,178.4167,91.0,38.61,38.61,25.0,6.78
vaitupu,AO,1624185754.0,-15.1961,12.1522,73.0,68.63,68.63,0.0,11.5
ermelo,US,1624185754.0,41.3712,-73.414,92.0,62.19,65.48,1.0,0.0
miragoane,LY,1624185756.0,29.0331,21.5482,18.0,90.55,90.55,0.0,8.86
gijon,CA,1624185733.0,55.7435,-97.8558,81.0,37.56,37.56,20.0,5.75
cherskiy,US,1624185610.0,39.1834,-84.5333,92.0,71.56,73.78,20.0,1.01
ciudad bolivar,MG,1624185757.0,-21.6667,45.1667,26.0,84.25,84.25,0.0,13.49
phaltan,IN,1624185758.0,11.6667,92.75,73.0,84.81,84.81,68.0,12.93
shubarkuduk,IN,1624185759.0,12.4,78.0,43.0,87.28,87.28,89.0,15.08
tsihombe,ID,1624185760.0,-0.9492,100.3543,83.0,80.1,80.1,87.0,1.32
lamu,MX,1624185652.0,24.8333,-104.8333,80.0,57.04,57.04,78.0,3.98
chokurdakh,CL,1624185761.0,-41.8697,-73.8203,86.0,42.33,42.33,96.0,4.94
port moresby,VE,1624185762.0,10.6038,-67.0303,100.0,75.4,75.4,60.0,1.14
dikson,NA,1624185763.0,-26.6481,15.1594,23.0,83.75,83.75,0.0,10.0
leningradskiy,AU,1624185764.0,-24.8667,113.6333,50.0,62.67,62.67,82.0,0.0
namibe,GR,1624185765.0,35.507,27.2132,83.0,80.56,80.56,20.0,27.63
bethel,IQ,1624185766.0,33.6416,42.8251,8.0,103.91,103.91,0.0,14.99
sahrak,JP,1624185767.0,35.7333,140.8333,81.0,71.53,72.0,74.0,4.09
jalu,NZ,1624185768.0,-35.6167,174.5,87.0,56.16,56.16,70.0,12.95
thompson,GT,1624185768.0,14.3,-91.9167,81.0,77.31,81.03,98.0,3.02
hamilton,GB,1624185769.0,53.552,-0.4921,77.0,58.15,59.25,40.0,11.5
beroroha,RU,1624185770.0,62.2167,135.8,49.0,74.28,74.28,100.0,4.38
port blair,CA,1624185770.0,50.2334,-63.5986,100.0,55.76,55.76,90.0,9.22
marandahalli,US,1624185771.0,41.7992,-85.4192,53.0,64.62,69.51,40.0,0.0
padang,ID,1624185772.0,-9.6567,120.2641,80.0,78.24,78.24,6.0,10.92
durango,ZA,1624185772.0,-33.0153,27.9116,19.0,88.74,88.74,0.0,11.5
ancud,US,1624185773.0,42.2506,-75.833,97.0,58.19,61.2,90.0,3.0
catia la mar,BR,1624185774.0,-30.1811,-50.2056,94.0,57.54,57.54,100.0,3.04
tumannyy,BR,1624185775.0,-22.6528,-43.0406,76.0,69.35,71.56,7.0,2.95
luderitz,NG,1624185767.0,6.5833,3.75,71.0,75.52,75.52,100.0,6.06
carnarvon,JP,1624185776.0,34.6667,138.95,87.0,71.1,76.15,96.0,1.12
dolbeau,CK,1624185777.0,-21.2078,-159.775,68.0,71.65,71.65,20.0,12.66
karpathos,EG,1624185672.0,30.6043,32.2723,45.0,87.87,87.87,0.0,13.8
barawe,SN,1624185778.0,15.6064,-13.3211,28.0,98.6,98.6,0.0,2.3
hit,CA,1624185779.0,51.226,-58.6502,94.0,51.71,51.71,100.0,3.22
hasaki,RU,1624185779.0,71.6872,128.8694,56.0,57.63,57.63,82.0,4.52
ngunguru,CL,1624185780.0,-37.6167,-73.65,79.0,46.26,46.26,100.0,6.08
champerico,VN,1624185781.0,20.45,106.3333,60.0,95.0,95.0,27.0,13.89
brigg,YE,1624185781.0,14.298,44.3779,17.0,76.84,76.84,100.0,8.68
dzhebariki-khaya,CL,1624185782.0,-45.5752,-72.0662,93.0,35.55,35.55,90.0,6.91
havre-saint-pierre,GL,1624185783.0,68.8193,-51.1922,91.0,44.85,44.85,98.0,3.56
sturgis,IS,1624185784.0,66.0449,-17.3389,70.0,46.31,46.31,91.0,8.93
waingapu,MG,1624185784.0,-20.05,48.1167,82.0,67.93,67.93,60.0,5.79
east london,US,1624185534.0,41.1415,-73.3579,93.0,63.57,67.77,20.0,1.99
broome,PT,1624185787.0,40.1629,-8.3327,63.0,65.07,68.36,92.0,9.35
cidreira,GL,1624185788.0,65.6145,-37.6368,62.0,37.56,37.56,87.0,8.25
mage,US,1624185788.0,28.017,-97.5169,87.0,80.71,84.09,100.0,6.17
lagos,PH,1624185789.0,17.0818,122.4157,81.0,83.01,83.01,100.0,3.11
shimoda,IR,1624185790.0,37.197,50.1535,54.0,89.65,89.65,1.0,10.16
avarua,RU,1624185791.0,59.5833,151.2833,72.0,50.67,50.67,89.0,2.44
ismailia,AR,1624185791.0,-31.5375,-68.5364,72.0,36.37,36.37,0.0,3.53
ourossogui,CA,1624185792.0,65.282,-126.8329,57.0,50.04,50.04,40.0,6.91
saint-augustin,SD,1624185793.0,12.35,29.25,38.0,90.57,90.57,89.0,9.17
tiksi,PH,1624185793.0,14.3122,121.1114,70.0,83.64,85.98,96.0,11.23
lebu,RE,1624185794.0,-21.3585,55.7679,76.0,75.13,78.35,40.0,14.07
thai binh,RU,1624185796.0,53.3508,102.7839,58.0,76.12,76.12,25.0,6.62
yarim,GF,1624185796.0,4.7263,-52.3274,100.0,75.11,76.96,75.0,0.0
coihaique,US,1624185797.0,64.8378,-147.7164,94.0,54.39,57.16,90.0,3.44
qasigiannguit,IE,1624185798.0,54.6333,-8.45,70.0,62.31,62.31,75.0,8.75
husavik,NZ,1624185798.0,-46.1333,167.6833,92.0,38.82,38.82,93.0,3.04
marolambo,US,1624185799.0,21.3156,-158.0072,75.0,73.8,76.08,1.0,5.99
barentsburg,IN,1624185800.0,11.2333,79.8333,59.0,89.22,89.22,91.0,16.46
ust-kamchatsk,BR,1624185801.0,-17.1078,-43.815,81.0,58.71,58.71,4.0,3.51
westport,GL,1624185801.0,61.994,-49.6678,98.0,40.23,40.23,100.0,3.33
grand river south east,CL,1624185802.0,-29.9533,-71.3436,82.0,53.33,53.33,90.0,1.14
lata,JP,1624185803.0,41.8167,140.65,88.0,57.58,57.58,75.0,13.8
tasiilaq,TL,1624185803.0,-8.9266,125.4092,93.0,58.28,58.28,70.0,3.58
san patricio,ML,1624185804.0,22.6783,-3.9836,6.0,106.18,106.18,10.0,7.99
dicabisagan,CA,1624185805.0,63.7506,-68.5145,74.0,36.7,37.13,75.0,8.01
langarud,CA,1624185805.0,70.4692,-68.5914,100.0,35.83,35.83,90.0,3.44
ola,AU,1624185806.0,-20.7333,139.5,31.0,58.77,58.77,3.0,6.91
san juan,ZM,1624185807.0,-8.4689,29.6619,41.0,76.14,76.14,4.0,2.95
norman wells,ID,1624185808.0,3.8167,117.25,92.0,84.13,84.13,89.0,3.13
abu zabad,US,1624185778.0,34.8791,-76.9013,86.0,74.26,76.95,75.0,3.44
santa rosa,MX,1624185525.0,22.8909,-109.9124,85.0,75.33,83.52,44.0,12.77
saint-philippe,ES,1624185810.0,41.9174,3.1631,19.0,79.88,82.42,75.0,19.42
guajara-mirim,ZA,1624185810.0,-23.6649,27.7443,32.0,72.41,72.41,60.0,7.45
kutulik,PT,1624185811.0,39.05,-27.9833,73.0,65.21,65.21,0.0,15.46
roura,PF,1624185812.0,-16.5167,-151.75,78.0,79.34,79.34,13.0,8.59
fairbanks,SN,1624185775.0,14.6937,-17.4441,78.0,78.93,81.48,75.0,11.5
killybegs,RU,1624185813.0,53.5739,142.9478,73.0,50.74,50.74,96.0,6.87
tuatapere,UY,1624185814.0,-33.6971,-53.4616,93.0,53.56,53.56,99.0,13.71
ewa beach,PF,1624185814.0,-16.4833,-151.75,79.0,79.34,79.34,13.0,8.48
tirumullaivasal,RU,1624185815.0,68.0531,39.5131,71.0,57.45,57.45,99.0,7.09
bocaiuva,BR,1624185816.0,1.0,-52.0,92.0,73.76,73.76,67.0,1.43
paamiut,RU,1624185816.0,64.3833,-173.3,58.0,53.35,53.35,14.0,1.88
coquimbo,IN,1624185817.0,25.5198,90.2201,95.0,73.6,73.6,100.0,3.69
kamiiso,SR,1624185818.0,4.75,-55.1667,87.0,76.95,76.95,10.0,6.6
airai,SA,1624185693.0,24.6877,46.7219,5.0,107.65,107.65,0.0,13.8
taoudenni,MU,1624185819.0,-20.2078,57.7625,62.0,77.09,77.09,77.0,18.66
iqaluit,MZ,1624185820.0,-19.8436,34.8389,100.0,64.49,64.49,90.0,3.44
clyde river,ML,1624185821.0,20.1986,1.0114,15.0,102.2,102.2,3.0,7.31
mount isa,RU,1624185821.0,50.8523,37.3574,59.0,78.66,78.66,49.0,14.27
kaputa,PT,1624185822.0,38.5167,-28.7,64.0,72.0,72.0,20.0,4.61
sembakung,RO,1624185823.0,46.4333,26.4,87.0,66.99,70.75,100.0,4.59
havelock,LK,1624185824.0,6.1241,81.1185,49.0,95.34,95.34,20.0,11.5
cabo san lucas,AR,1624185551.0,-38.0023,-57.5575,74.0,41.86,43.12,75.0,8.99
palafrugell,CD,1624185574.0,-11.6609,27.4794,31.0,74.68,74.68,7.0,8.12
ellisras,NA,1624185825.0,-22.116,14.2845,28.0,84.07,84.07,0.0,16.64
lagoa,CL,1624185828.0,-35.3333,-72.4167,77.0,48.58,48.58,91.0,3.89
vaitape,GL,1624185829.0,60.9167,-46.05,77.0,46.62,46.62,100.0,2.66
dakar,MZ,1624185830.0,-23.865,35.3833,78.0,71.58,71.58,75.0,12.66
okha,AU,1624185831.0,-32.5,137.7667,71.0,56.71,56.71,3.0,7.29
chuy,RU,1624185832.0,46.4856,135.8833,48.0,50.92,50.92,82.0,6.98
faanui,BR,1624185832.0,-9.6658,-35.7353,94.0,72.84,72.84,75.0,5.75
ostrovnoy,PE,1624185833.0,-7.3333,-75.0167,97.0,68.65,68.65,59.0,1.43
amapa,IT,1624185834.0,38.2779,16.302,41.0,91.51,92.34,1.0,4.61
provideniya,US,1624185622.0,46.8083,-100.7837,95.0,57.09,58.87,90.0,17.27
tura,MY,1624185835.0,5.4112,100.3354,77.0,82.85,83.89,20.0,1.01
brokopondo,GF,1624185836.0,4.9333,-52.3333,90.0,77.09,77.09,75.0,3.0
riyadh,SR,1624185836.0,5.8833,-55.0833,94.0,75.6,76.01,40.0,0.0
quatre cocos,BR,1624185837.0,-20.4167,-54.0667,79.0,54.61,54.61,100.0,3.85
beira,ZA,1624185838.0,-33.0117,17.9442,43.0,78.85,78.85,3.0,18.23
tessalit,US,1624185838.0,36.108,-115.245,14.0,94.08,96.3,1.0,1.01
yablonovo,ET,1624185839.0,9.0167,37.45,69.0,63.73,63.73,61.0,4.54
ribeira grande,NZ,1624185840.0,-45.8742,170.5036,93.0,46.8,46.8,88.0,5.93
asau,AU,1624185841.0,-33.8667,121.9,47.0,58.84,58.84,91.0,5.01
hambantota,RU,1624185842.0,59.7035,30.7861,31.0,85.77,90.39,4.0,9.42
mar del plata,US,1624185842.0,36.7281,-108.2187,35.0,68.11,70.48,1.0,4.61
lubumbashi,IR,1624185843.0,34.692,50.013,9.0,87.01,87.01,0.0,12.17
henties bay,RU,1624185844.0,64.8989,45.7622,70.0,54.36,54.36,100.0,2.68
constitucion,PG,1624185845.0,-4.352,152.2633,86.0,77.41,77.41,99.0,8.39
narsaq,SA,1624185845.0,21.4267,39.8261,15.0,106.66,106.66,13.0,29.59
inhambane,MN,1624185846.0,48.0056,91.6419,31.0,74.21,74.21,89.0,0.87
puerto pinasco,RU,1624185847.0,61.3833,152.75,60.0,54.97,54.97,29.0,8.57
port augusta,US,1624185848.0,33.4151,-111.5496,27.0,87.85,92.66,1.0,3.0
vostok,NG,1624185848.0,8.9333,8.6,54.0,88.7,88.7,91.0,4.03
maceio,LK,1624185849.0,8.5711,81.2335,63.0,89.11,89.11,90.0,7.4
contamana,GH,1624185850.0,5.7947,0.8973,74.0,80.82,80.82,100.0,13.29
siderno,PE,1624185851.0,-4.5772,-81.2719,84.0,67.32,67.32,100.0,15.75
bismarck,VE,1624185852.0,9.6612,-68.5827,88.0,73.83,73.83,94.0,1.43
georgetown,ID,1624185853.0,-3.3667,135.4833,88.0,77.56,77.56,100.0,2.28
cayenne,JP,1624185854.0,35.1333,140.3,83.0,75.74,78.12,90.0,6.53
nieuw amsterdam,RU,1624185855.0,50.7214,136.6319,53.0,61.21,61.21,89.0,3.83
campo verde,BF,1624185855.0,10.6667,-5.1667,50.0,88.9,88.9,77.0,6.22
saldanha,US,1624185856.0,47.4736,-94.8803,91.0,57.58,61.09,90.0,3.44
spring valley,BR,1624185857.0,-2.9248,-39.9167,79.0,79.12,79.12,62.0,13.78
gedo,RU,1624185857.0,66.7697,123.3711,41.0,78.17,78.17,13.0,4.36
dunedin,PE,1624185858.0,-9.4167,-76.7833,92.0,42.96,42.96,22.0,3.78
esperance,AU,1624185859.0,-38.2667,141.9667,67.0,51.98,51.98,99.0,4.23
nikolskoye,MG,1624185860.0,-14.2667,50.1667,63.0,78.55,78.55,49.0,18.1
farmington,NZ,1624185860.0,-45.4167,167.7167,96.0,39.6,39.6,78.0,3.87
tafresh,RU,1624185861.0,69.7008,170.3133,71.0,44.11,44.11,18.0,6.08
leshukonskoye,AO,1624185862.0,-12.0167,17.4833,22.0,77.36,77.36,7.0,3.96
kokopo,CL,1624185863.0,-27.3667,-70.3333,72.0,51.49,51.49,95.0,3.0
mecca,RU,1624185863.0,65.5833,-171.0,68.0,47.48,47.48,7.0,2.15
hovd,KZ,1624185677.0,52.4994,73.0975,77.0,57.67,57.67,100.0,22.59
talaya,SA,1624185729.0,18.2164,42.5053,10.0,88.05,88.05,0.0,4.61
apache junction,BR,1624185865.0,-14.7447,-50.5706,45.0,75.18,75.18,20.0,2.19
wamba,ES,1624185866.0,29.0605,-13.564,53.0,70.02,70.02,40.0,20.71
trincomalee,RU,1624185867.0,53.5289,57.5372,42.0,77.56,77.56,45.0,15.66
anloga,RU,1624185867.0,69.3,139.9,40.0,69.1,69.1,15.0,12.19
karamay,RU,1624185868.0,50.6789,156.125,90.0,43.32,43.32,99.0,7.49
talara,CO,1624185869.0,8.0942,-74.7757,99.0,73.67,73.67,100.0,2.13
san carlos,CN,1624185869.0,39.2342,106.3439,24.0,79.38,79.38,100.0,9.91
bolungarvik,AU,1624185870.0,-20.7377,116.8463,63.0,70.88,70.88,18.0,6.76
nabire,AF,1624185871.0,32.5,62.5,6.0,98.74,98.74,0.0,21.61
katsuura,CM,1624185872.0,4.1667,11.5333,52.0,80.47,80.47,36.0,0.63
solnechnyy,AU,1624185872.0,-34.7333,135.8667,67.0,52.93,52.93,4.0,5.88
sindou,AR,1624185873.0,-51.6226,-69.2181,100.0,24.85,24.85,0.0,1.14
bemidji,NC,1624185874.0,-22.6667,167.4833,66.0,71.92,71.92,46.0,21.52
itarema,CA,1624185794.0,52.3668,-106.9679,73.0,44.17,51.03,51.0,8.86
zhigansk,RU,1624185876.0,64.9225,77.785,42.0,56.64,56.64,97.0,9.82
llata,VE,1624185876.0,10.3399,-68.7425,96.0,72.39,72.39,57.0,1.99
codrington,FO,1624185877.0,62.2266,-6.589,83.0,50.92,50.92,88.0,7.25
sambava,BO,1624185878.0,-17.8,-63.1667,71.0,53.65,53.65,90.0,11.5
te anau,RE,1624185879.0,-21.15,55.2833,79.0,74.37,77.83,15.0,17.67
pevek,CN,1624185879.0,29.3848,104.0286,65.0,80.13,80.13,11.0,5.75
camacupa,JP,1624185880.0,33.7333,135.3667,73.0,74.41,74.41,75.0,6.91
copiapo,ID,1624185881.0,-3.8004,102.2655,77.0,80.62,80.62,76.0,5.12
lavrentiya,BR,1624185881.0,-17.7125,-39.2481,72.0,73.17,73.17,100.0,4.14
bestobe,IS,1624185882.0,63.8424,-22.4338,66.0,48.11,48.67,40.0,17.27
abha,VN,1624185883.0,21.3167,103.9,73.0,82.63,82.63,80.0,2.21
mozarlandia,KZ,1624185884.0,46.844,74.9804,32.0,68.61,68.61,0.0,20.13
teguise,ID,1624185884.0,-7.3817,108.2082,95.0,73.56,73.56,94.0,1.97
verkhniy avzyan,AU,1624185885.0,-23.1333,150.7333,63.0,56.98,56.98,1.0,2.8
deputatskiy,RU,1624185886.0,66.4167,112.4,45.0,76.78,76.78,77.0,1.77
severo-kurilsk,US,1624185610.0,39.4101,-74.3646,99.0,66.43,69.85,1.0,0.0
nechi,GM,1624185887.0,13.5667,-15.6,30.0,89.87,89.87,57.0,7.31
shitanjing,RU,1624185888.0,47.35,142.8,88.0,48.06,48.06,95.0,5.35
karratha,UG,1624185889.0,3.6609,31.7247,37.0,88.93,88.93,55.0,1.21
farah,RU,1624185890.0,62.5903,40.6066,31.0,84.88,84.88,46.0,8.59
obala,AU,1624185891.0,-37.8333,140.7667,93.0,40.91,40.91,77.0,1.14
port lincoln,SS,1624185891.0,4.9158,29.4742,42.0,88.38,88.38,90.0,5.26
rio gallegos,RU,1624185892.0,66.0,111.5,52.0,71.98,71.98,65.0,1.5
rungata,MG,1624185893.0,-16.1,46.6333,31.0,89.74,89.74,28.0,13.11
vao,MA,1624185893.0,29.5833,-9.5,51.0,70.47,70.47,8.0,7.38
langham,NO,1624185894.0,71.0357,27.8492,79.0,46.62,46.62,100.0,5.88
tarko-sale,TZ,1624185895.0,-4.0667,35.3833,40.0,71.19,71.19,92.0,6.82
san felipe,US,1624185896.0,44.0625,-103.1463,56.0,65.12,68.32,1.0,31.07
klaksvik,YE,1624185896.0,15.1718,44.3244,9.0,80.74,80.74,89.0,15.75
santa cruz,IN,1624185897.0,22.15,81.8667,41.0,92.59,92.59,87.0,11.03
saint-leu,IE,1624185898.0,53.9167,-6.9667,84.0,56.43,56.43,100.0,8.34
luocheng,MV,1624185899.0,3.7833,72.9667,71.0,83.08,83.08,7.0,13.35
tanabe,RU,1624185899.0,65.75,150.85,39.0,61.54,61.54,100.0,10.27
bengkulu,RU,1624185900.0,63.05,179.3167,89.0,41.29,41.29,100.0,1.63
caravelas,US,1624185901.0,34.6391,-120.4579,88.0,55.04,60.39,90.0,3.44
grindavik,JP,1624185901.0,28.3667,129.4833,92.0,70.72,70.72,100.0,10.74
son la,KG,1624185902.0,42.3414,78.0056,45.0,65.17,65.17,100.0,11.1
balkhash,PF,1624185903.0,-17.5333,-149.3333,81.0,78.82,78.82,70.0,10.38
kawalu,RU,1624185904.0,50.9409,37.8069,56.0,77.04,77.04,66.0,13.47
yeppoon,YE,1624185612.0,12.7794,45.0367,64.0,89.46,89.46,100.0,12.5
udachnyy,VN,1624185905.0,13.0833,109.3,73.0,83.53,83.53,67.0,8.9
brigantine,US,1624185906.0,20.8947,-156.47,84.0,72.34,75.85,75.0,6.91
farafenni,US,1624185823.0,39.9523,-75.1638,95.0,64.31,68.05,75.0,0.0
dolinsk,ID,1624185855.0,-8.4667,140.3333,79.0,78.46,78.46,92.0,16.6
moyo,NA,1624185908.0,-28.55,16.4333,24.0,82.02,82.02,3.0,19.73
buariki,MM,1624185909.0,21.4667,95.3833,47.0,89.96,89.96,73.0,18.43
puksoozero,PG,1624185910.0,-2.5744,150.7967,78.0,81.12,81.12,85.0,9.93
mount gambier,PE,1624185910.0,-10.6667,-77.8333,88.0,64.92,64.92,89.0,9.08
maridi,SE,1624185912.0,61.729,17.1036,79.0,60.53,60.53,100.0,6.38
aykhal,ES,1624185913.0,41.129,1.249,64.0,74.59,78.49,40.0,2.3
marovoay,RU,1624185914.0,45.0917,133.5136,93.0,52.83,52.83,100.0,2.57
tiznit,CN,1624185915.0,41.7597,86.1469,10.0,90.09,90.09,1.0,7.14
mehamn,ES,1624185916.0,42.696,-8.2465,75.0,54.73,56.1,88.0,11.03
dongobesh,IN,1624185916.0,10.5669,72.642,76.0,83.26,83.26,100.0,19.46
rapid valley,TG,1624185917.0,10.8639,0.205,52.0,87.64,87.64,100.0,10.63
sayyan,PL,1624185754.0,52.7651,23.1865,55.0,88.25,88.25,2.0,11.41
takhatpur,PH,1624185918.0,13.3528,123.3677,89.0,80.1,80.1,100.0,6.46
bailieborough,NI,1624185919.0,14.0351,-83.3888,87.0,79.16,79.16,68.0,9.91
mahibadhoo,BJ,1624185920.0,6.4965,2.6036,64.0,78.62,78.62,100.0,7.74
zyryanka,MU,1624185920.0,-20.0064,57.6608,54.0,77.38,77.38,77.0,8.99
beringovskiy,GN,1624185921.0,10.4167,-13.5833,76.0,80.56,80.56,97.0,4.16
lompoc,GB,1624185922.0,51.3813,1.3862,85.0,62.15,65.3,91.0,4.0
naze,TC,1624185923.0,21.4612,-71.1419,80.0,80.76,80.76,49.0,20.24
kyzyl-suu,BR,1624185923.0,-4.8667,-44.7083,78.0,76.46,76.46,52.0,2.71
tiarei,US,1624185866.0,36.8529,-75.978,72.0,77.11,79.11,75.0,12.66
chernyanka,CN,1624185925.0,39.3953,121.9669,50.0,80.73,80.73,39.0,6.82
aden,BR,1624185926.0,-2.5983,-43.4611,89.0,78.08,78.08,8.0,6.87
tuy hoa,NZ,1624185927.0,-35.1667,173.1667,87.0,58.51,58.51,96.0,13.24
kahului,CN,1624185927.0,39.7432,98.5174,14.0,85.06,85.06,96.0,12.24
filadelfia,MG,1624185928.0,-25.1667,45.05,61.0,70.29,70.29,84.0,17.96
ondorhaan,OM,1624185929.0,17.0151,54.0924,79.0,84.29,84.29,75.0,17.27
merauke,AR,1624185930.0,-45.8667,-67.5,61.0,42.66,42.66,0.0,9.22
oranjemund,AU,1624185930.0,-14.4667,132.2667,32.0,68.32,68.32,50.0,6.91
myingyan,PE,1624185931.0,-12.1167,-77.05,59.0,61.41,62.19,90.0,9.22
kavieng,TD,1624185932.0,9.1104,18.3463,52.0,91.35,91.35,20.0,4.61
paramonga,RU,1624185933.0,60.7333,77.5889,46.0,62.58,62.58,83.0,8.16
hudiksvall,RU,1624185933.0,45.0503,136.6092,63.0,54.34,54.34,100.0,10.69
tarragona,TD,1624185934.0,13.6408,16.4901,29.0,97.48,97.48,91.0,10.98
kirovskiy,NC,1624185935.0,-22.2763,166.4572,99.0,73.0,73.0,59.0,12.15
tawkar,KZ,1624185935.0,43.3,52.8,10.0,91.67,91.67,0.0,16.73
korla,MV,1624185936.0,2.9167,73.5667,69.0,83.43,83.43,6.0,13.65
silleda,CN,1624185937.0,37.15,122.3833,50.0,72.09,72.09,51.0,2.68
kavaratti,US,1624185938.0,30.4091,-89.0436,94.0,75.7,77.07,40.0,3.44
dapaong,CO,1624185938.0,12.5847,-81.7006,78.0,82.42,82.42,20.0,13.8
bielsk podlaski,RU,1624185939.0,55.3649,73.2231,95.0,55.08,55.08,100.0,18.03
bato,PG,1624185940.0,-2.6741,141.3028,82.0,79.21,79.21,98.0,5.17
puerto cabezas,RU,1624185941.0,64.75,177.4833,71.0,52.3,52.3,0.0,2.24
porto novo,MU,1624185941.0,-20.5167,57.5167,64.0,75.58,77.36,75.0,14.97
grand gaube,GA,1624185942.0,-0.7193,8.7815,70.0,84.16,84.16,75.0,16.11
fria,GB,1624185845.0,53.4106,-2.9779,88.0,58.57,60.58,100.0,6.44
margate,MX,1624185669.0,25.4167,-101.0,72.0,62.67,63.16,100.0,4.85
cockburn town,CF,1624185944.0,4.7413,22.8184,40.0,91.33,91.33,67.0,2.84
esperantinopolis,EG,1624185945.0,27.2696,31.1511,12.0,98.82,98.82,0.0,10.8
virginia beach,NO,1624185946.0,60.9333,10.7,59.0,62.94,62.94,100.0,4.36
pulandian,US,1624185716.0,64.5011,-165.4064,58.0,55.47,55.47,1.0,11.5
humberto de campos,BR,1624185947.0,-2.8856,-40.12,77.0,79.52,79.52,47.0,14.88
tabiauea,SE,1624185949.0,63.1792,14.6357,82.0,52.25,56.61,90.0,1.14
ahipara,NZ,1624185950.0,-38.0651,174.8183,92.0,51.82,54.37,100.0,2.51
jiuquan,FO,1624185950.0,61.4732,-6.8119,85.0,46.99,46.99,59.0,12.5
beloha,AO,1624185951.0,-6.1349,12.3689,67.0,80.65,80.65,70.0,8.39
salalah,NU,1624185952.0,-19.0595,-169.9187,88.0,71.49,71.49,53.0,4.61
comodoro rivadavia,EG,1624185953.0,24.0934,32.907,9.0,102.85,102.85,0.0,12.3
katherine,CO,1624185954.0,3.8653,-67.9239,100.0,71.91,71.91,100.0,2.06
san isidro,SL,1624185955.0,7.5264,-12.505,86.0,77.9,77.9,100.0,4.18
kibala,PA,1624185956.0,9.2333,-78.0167,86.0,79.18,79.18,44.0,4.36
strezhevoy,MN,1624185955.0,47.9077,106.8832,25.0,77.13,77.13,75.0,6.71
terney,CA,1624185670.0,58.8053,-122.7002,87.0,49.59,49.59,40.0,2.3
moussoro,MX,1624185957.0,31.7167,-116.5667,88.0,64.09,64.09,15.0,4.43
noumea,BS,1624185958.0,26.6208,-78.2833,83.0,80.62,80.62,85.0,13.67
zhanaozen,GB,1624185959.0,50.1186,-5.5371,86.0,60.31,63.61,59.0,9.93
muli,NO,1624185960.0,68.774,16.1739,100.0,52.83,53.38,78.0,5.23
yatou,RU,1624185961.0,62.55,149.6667,76.0,58.03,58.03,82.0,7.25
harrison,KZ,1624185962.0,43.0369,74.7114,31.0,73.44,73.44,0.0,6.71
san andres,IT,1624185962.0,43.9553,11.3835,63.0,81.07,87.62,100.0,3.96
krutaya gorka,RU,1624185963.0,51.0167,116.5167,75.0,61.03,61.03,92.0,7.16
vanimo,BR,1624185964.0,-8.0875,-37.6431,70.0,72.28,72.28,8.0,12.39
anadyr,US,1624185900.0,33.7321,-84.9191,95.0,69.08,71.22,100.0,6.49
souillac,ID,1624185965.0,-8.345,113.6058,87.0,77.5,77.5,100.0,1.39
port-gentil,FR,1624185966.0,49.2818,1.7801,65.0,70.59,74.01,100.0,4.9
liverpool,US,1624185966.0,34.2257,-77.9447,85.0,73.96,75.85,90.0,5.75
tarudant,BR,1624185967.0,-8.8978,-35.1478,82.0,76.68,76.68,8.0,2.8
saltillo,GB,1624185716.0,50.7167,-2.0,94.0,61.05,62.44,75.0,1.99
bangassou,NO,1624185969.0,70.8578,29.0864,84.0,45.25,45.25,100.0,5.86
abnub,IN,1624185970.0,30.15,78.7833,67.0,76.55,76.55,47.0,5.53
moelv,MX,1624185971.0,27.9769,-114.0611,88.0,61.95,61.95,38.0,8.57
nome,CA,1624185971.0,50.2536,-96.0612,98.0,56.59,57.74,100.0,5.01
acarau,NZ,1624185972.0,-40.85,172.8,74.0,52.97,52.97,100.0,13.78
ostersund,MX,1624185915.0,20.75,-105.3333,90.0,77.99,77.99,78.0,2.53
kawhia,JP,1624185974.0,26.5881,127.9761,94.0,84.15,84.63,100.0,10.65
vagur,SY,1624185975.0,34.4506,40.9171,10.0,98.38,98.38,0.0,11.39
soyo,IR,1624185976.0,29.106,58.357,9.0,94.82,94.82,0.0,22.64
alofi,PF,1624185977.0,-16.7,-151.0167,73.0,80.49,80.49,35.0,9.73
aswan,PE,1624185978.0,-11.3167,-75.6167,78.0,34.93,34.93,61.0,3.78
tokzar,CA,1624185912.0,54.7682,-101.865,79.0,38.73,38.73,32.0,9.48
inirida,ID,1624185979.0,-0.8667,134.0833,79.0,79.57,79.57,83.0,1.03
bonthe,ID,1624185980.0,4.1363,96.1285,88.0,76.71,76.71,100.0,4.92
ailigandi,SO,1624185980.0,5.3505,48.5268,62.0,83.08,83.08,18.0,29.35
ulaanbaatar,PE,1624185982.0,-12.0432,-77.0282,89.0,62.26,62.91,90.0,9.22
fort nelson,US,1624185870.0,36.6177,-121.9166,91.0,54.27,58.24,90.0,1.99
maneadero,TN,1624185984.0,35.8567,8.4765,12.0,100.4,100.4,64.0,11.74
high rock,RU,1624185984.0,67.45,153.6833,62.0,55.38,55.38,12.0,17.49
penzance,RU,1624185985.0,65.9939,57.5281,54.0,47.44,47.44,100.0,12.55
borkenes,AR,1624185986.0,-38.8759,-62.0736,82.0,42.71,42.71,11.0,12.73
khormuj,RU,1624185986.0,63.2842,118.3319,53.0,78.06,78.06,29.0,4.79
yagodnoye,RU,1624185987.0,57.3132,52.1345,35.0,74.89,74.89,3.0,9.86
georgiyevka,BW,1624185990.0,-19.9833,23.4167,31.0,74.05,74.05,83.0,9.78
borgo san lorenzo,FR,1624185990.0,41.591,9.2795,58.0,86.58,90.86,0.0,11.5
kalanguy,GL,1624185991.0,64.1835,-51.7216,100.0,39.81,39.81,90.0,10.36
custodia,GA,1624185992.0,0.1943,10.0951,66.0,84.22,84.22,66.0,3.09
villa rica,AU,1624185992.0,-25.2406,130.9889,46.0,51.64,51.64,0.0,3.44
ambulu,GQ,1624185993.0,3.4568,8.5547,82.0,85.89,85.89,42.0,8.12
gisors,KZ,1624185994.0,41.7589,69.3864,13.0,87.73,87.73,0.0,17.18
wilmington,BR,1624185995.0,-2.4959,-66.2662,99.0,71.1,71.1,100.0,2.46
sao jose da coroa grande,CH,1624185996.0,46.2022,6.1457,65.0,79.88,83.32,20.0,9.22
poole,KZ,1624185997.0,50.4111,80.2275,29.0,64.62,64.62,40.0,6.71
berlevag,RU,1624185997.0,58.9564,126.2925,73.0,74.25,74.25,78.0,2.82
louisbourg,SB,1624185998.0,-8.145,159.5921,77.0,79.48,79.48,74.0,2.21
pauri,ES,1624185999.0,43.213,-8.691,89.0,58.12,61.09,72.0,11.54
guerrero negro,JP,1624186000.0,24.8,125.2833,84.0,86.27,86.27,75.0,8.05
lac du bonnet,MZ,1624186001.0,-16.2325,39.9086,58.0,78.89,78.89,35.0,9.62
takaka,RU,1624186002.0,65.3667,64.6667,74.0,46.58,46.58,100.0,15.57
bucerias,CN,1624186003.0,27.7172,109.1853,91.0,74.82,74.82,100.0,2.46
kamenskoye,LK,1624186004.0,7.4167,81.8167,64.0,86.97,86.97,87.0,14.72
jabiru,CL,1624186004.0,-36.7167,-73.1167,100.0,38.88,38.88,0.0,3.44
nago,MX,1624186005.0,20.7,-105.2,90.0,77.23,77.23,78.0,2.53
abu kamal,US,1624185894.0,45.5234,-122.6762,84.0,59.58,63.18,1.0,1.99
richard toll,BR,1624186007.0,-6.9811,-34.8339,80.0,72.27,72.27,33.0,8.84
bam,ZA,1624186008.0,-34.084,18.8211,29.0,81.84,82.06,21.0,10.0
fare,NO,1624186008.0,63.7256,8.834,86.0,62.56,62.56,86.0,23.11
huasahuasi,CA,1624186009.0,51.5501,-108.0014,81.0,49.98,49.98,42.0,9.22
flin flon,ZA,1624186010.0,-30.3023,27.084,32.0,59.88,59.88,0.0,4.52
manokwari,CA,1624186011.0,52.9999,-122.5029,100.0,43.3,43.3,1.0,0.0
meulaboh,SE,1624186012.0,59.3793,13.5036,82.0,61.36,61.36,90.0,4.61
hobyo,CA,1624186012.0,49.7834,-74.8492,74.0,53.38,53.38,95.0,5.44
karamea,ES,1624186013.0,37.4725,-4.4421,47.0,69.42,71.04,40.0,10.69
lima,BR,1624186014.0,-21.2747,-43.1792,82.0,61.34,61.34,4.0,5.91
pacific grove,PK,1624186015.0,25.1216,62.3254,70.0,86.74,86.74,0.0,13.15
bargal,US,1624186015.0,43.4065,-124.2243,94.0,54.01,55.92,90.0,11.5
manzil salim,SS,1624186016.0,4.4133,32.5678,42.0,89.1,89.1,89.0,6.35
srednekolymsk,BR,1624185813.0,-32.035,-52.0986,96.0,55.94,55.94,99.0,10.09
usinsk,PE,1624186018.0,-11.0964,-77.6139,88.0,64.27,64.27,95.0,9.86
punta alta,BR,1624186019.0,-5.1989,-35.4608,75.0,72.5,72.5,24.0,13.04
nyurba,GA,1624186020.0,-1.5746,9.2618,71.0,80.26,80.26,53.0,11.52
selty,NA,1624186021.0,-18.0607,13.84,24.0,76.15,76.15,0.0,18.05
staryy biser,RU,1624186022.0,67.8006,130.4114,31.0,80.06,80.06,69.0,3.02
maun,ZA,1624186022.0,-34.0033,24.7314,20.0,84.88,84.88,36.0,15.59
porto-vecchio,PY,1624186023.0,-21.0415,-57.8738,80.0,54.84,54.84,96.0,1.57
nuuk,PH,1624186024.0,20.4487,121.9702,84.0,84.0,84.0,100.0,26.35
kango,CM,1624186025.0,9.05,13.7333,39.0,85.32,85.32,76.0,4.38
yulara,RU,1624186025.0,59.7,150.1667,77.0,50.11,50.11,76.0,5.35
luba,ID,1624186026.0,-3.3333,128.9167,86.0,78.62,78.62,100.0,6.17
leninskoye,ZM,1624186028.0,-13.6202,29.3939,34.0,72.01,72.01,0.0,9.71
fonte boa,MU,1624186029.0,-20.3428,57.7575,64.0,75.45,77.22,75.0,14.97
amderma,VN,1624186029.0,13.7667,109.2333,60.0,89.55,89.55,39.0,12.66
ginebra,RU,1624186030.0,59.3833,143.3,78.0,49.14,49.14,100.0,12.86
semey,RU,1624186031.0,50.2814,113.2867,64.0,62.89,62.89,75.0,5.86
tommot,DJ,1624186031.0,11.5,42.5,15.0,90.82,90.82,55.0,6.58
buala,BD,1624186032.0,22.3082,89.7897,87.0,80.26,80.26,99.0,4.9
carballo,ML,1624186033.0,18.4411,1.4078,17.0,103.19,103.19,43.0,12.01
hirara,PH,1624186034.0,10.9995,122.6711,80.0,80.1,80.1,100.0,8.1
ituni,AU,1624185921.0,-34.5833,150.8552,86.0,53.17,55.18,70.0,4.0
angoche,GA,1624186036.0,-2.7942,10.0988,74.0,77.92,77.92,99.0,10.09
inderborskiy,RU,1624186036.0,60.3725,93.0408,91.0,63.16,63.16,90.0,4.72
muzhi,PH,1624186037.0,6.3711,126.1689,74.0,84.06,84.06,92.0,13.58
tongren,RU,1624186038.0,61.67,96.37,37.0,79.63,79.63,53.0,10.67
kalmunai,BO,1624186039.0,-18.3333,-59.75,94.0,55.49,55.49,75.0,0.0
talcahuano,MZ,1624186039.0,-12.974,40.5178,57.0,80.22,81.3,40.0,18.01
ixtapa,CA,1624186040.0,49.0331,-119.4524,52.0,64.36,64.81,10.0,10.36
portland,BR,1624186041.0,-3.3836,-57.7186,90.0,73.29,73.29,39.0,3.09
orjahovo,RU,1624186042.0,53.1333,132.9,65.0,58.6,58.6,88.0,4.52
cabedelo,CL,1624186043.0,-20.2208,-70.1431,81.0,60.84,60.84,58.0,3.4
somerset west,KZ,1624186044.0,43.2,51.65,15.0,91.94,91.94,1.0,13.98
sistranda,NP,1624185867.0,27.7167,85.3167,88.0,73.62,73.62,75.0,2.3
rosetown,CH,1624186045.0,47.1821,8.4636,62.0,77.67,85.26,40.0,1.01
zastron,BR,1624186046.0,-5.3583,-42.6764,54.0,74.61,74.61,63.0,3.58
quesnel,RU,1624186046.0,63.9061,38.1404,38.0,78.62,78.62,8.0,7.45
karlstad,KZ,1624186047.0,44.5086,50.263,30.0,87.46,87.46,2.0,7.07
chapais,RU,1624186048.0,68.0546,166.4372,62.0,54.46,54.46,52.0,5.28
cabra,CA,1624186049.0,48.6499,-53.1147,71.0,55.4,55.4,71.0,13.02
rio pomba,CD,1624186049.0,2.7858,24.73,33.0,95.41,95.41,91.0,1.3
gwadar,RU,1624186050.0,43.9361,42.4434,78.0,75.7,75.7,99.0,3.62
north bend,US,1624186051.0,35.2597,-118.9143,30.0,81.68,91.99,0.0,0.63
torit,NO,1624186051.0,62.5833,6.1333,72.0,60.1,69.17,20.0,14.97
rio grande,AU,1624186027.0,-31.4333,152.9167,80.0,56.95,57.38,91.0,13.69
umzimvubu,CA,1624185911.0,48.9329,-125.5528,91.0,53.1,56.95,48.0,2.95
hualmay,CA,1624186053.0,55.1001,-105.2842,71.0,46.65,46.65,75.0,3.44
touros,PG,1624186054.0,-9.0763,143.2092,83.0,77.47,77.47,83.0,15.52
eldikan,CN,1624186055.0,42.1859,127.479,92.0,54.55,54.55,81.0,1.97
omboue,CD,1624186056.0,-4.55,18.6,18.0,98.22,98.22,13.0,2.19
opuwo,ID,1624186057.0,-3.7508,103.6372,71.0,79.92,79.92,64.0,1.77
batagay-alyta,VE,1624186058.0,9.9694,-71.1494,76.0,80.2,80.2,87.0,9.19
kruisfontein,US,1624186059.0,32.8551,-90.4056,95.0,70.03,72.3,42.0,4.76
fuerte olimpo,TR,1624186060.0,36.9559,36.2,56.0,75.04,86.52,57.0,10.33
basco,DZ,1624186062.0,36.365,6.6147,13.0,103.41,103.41,0.0,24.16
lagdo,RS,1624186055.0,44.804,20.4651,33.0,82.83,83.64,0.0,6.91
arman,CA,1624186063.0,55.4334,-116.4858,81.0,49.3,49.3,41.0,3.38
amahai,MA,1624186064.0,31.6315,-8.0083,49.0,73.47,73.47,0.0,5.75
saleaula,PW,1624186064.0,7.0419,134.2556,69.0,81.1,81.1,98.0,1.39
guicheng,AR,1624186065.0,-23.1322,-64.326,92.0,40.71,41.38,100.0,2.04
mkushi,KZ,1624186066.0,43.5983,73.7614,13.0,78.1,78.1,0.0,11.1
bambous virieux,CA,1624186067.0,53.8251,-101.2541,87.0,48.22,48.22,75.0,10.36
qui nhon,ES,1624186068.0,41.6096,-4.7969,83.0,58.48,63.21,90.0,11.5
okhotsk,FR,1624186069.0,44.1333,4.0833,80.0,74.05,79.5,100.0,6.96
aksha,CN,1624186069.0,38.731,113.228,31.0,76.51,76.51,77.0,1.61
jibuti,SO,1624186070.0,9.4092,45.064,33.0,87.64,87.64,53.0,24.92
sarankhola,IN,1624186071.0,31.5167,77.8,67.0,69.37,69.37,67.0,7.25
kidal,TH,1624186072.0,12.0828,99.8543,64.0,92.98,92.98,75.0,12.12
dingle,AU,1624186072.0,-28.7667,114.6,88.0,59.41,59.41,90.0,18.41
flinders,LY,1624186073.0,29.1268,15.9477,17.0,93.24,93.24,0.0,4.09
sapao,ID,1624186074.0,-0.9131,122.8766,83.0,77.47,77.47,96.0,4.9
tsogni,MZ,1624186075.0,-25.0519,33.6442,58.0,73.44,73.44,38.0,10.65
severo-yeniseyskiy,RU,1624186075.0,59.7775,30.8181,31.0,86.68,87.85,2.0,9.48
pundaguitan,AU,1624186077.0,-12.0667,134.2667,68.0,74.73,74.73,43.0,9.86
baykit,FR,1624186077.0,49.9,2.3,69.0,68.86,71.04,100.0,5.41
robore,BR,1624186078.0,-1.8283,-44.8683,94.0,77.41,77.41,55.0,5.08
pemba,US,1624186079.0,38.421,-121.4238,56.0,68.22,82.22,1.0,1.01
osoyoos,US,1624186080.0,45.0205,-93.218,63.0,63.34,66.31,75.0,1.99
maues,CD,1624186080.0,-2.95,25.95,31.0,96.24,96.24,84.0,1.25
ario,KZ,1624186081.0,53.88,67.4158,41.0,68.77,68.77,100.0,21.43
tokur,PK,1624186082.0,31.3411,69.4481,5.0,95.74,95.74,32.0,11.39
iquique,US,1624186083.0,39.447,-86.1758,93.0,71.24,73.9,55.0,7.2
kuryk,MV,1624186083.0,5.4444,73.3657,73.0,82.83,82.83,51.0,15.99
kathmandu,BR,1624186084.0,-20.3297,-40.2925,83.0,69.75,69.75,75.0,5.75
chama,RU,1624186085.0,55.4888,60.8767,36.0,74.89,74.89,8.0,18.52
demerval lobao,IN,1624186085.0,23.8333,71.6,49.0,92.57,92.57,92.0,7.54
